Ticks,z_setpoint,z_actual,z_p,z_i,z_d,w_command,w_actual,w_i,Nabla_command,Nabla_actual,Nabla_p,Nabla_i,Nabla_d,Qv_command,sps_command,Nabla_air,Roll,Pitch,Yaw,Scale Derived Oil Volume,Depth (raw),Temperature,Battery,VOS,RangeTime,RangeDist,USBLAzimuth,USBLElevation,USBLFitError,PositionEasting,PositionNorthing,PositionDepth,AUX0,AUX1,AUX2,AUX3,AUX4,AUX5,AUX6,AUX7,AUX8,AUX9,SrcID,State,VALVE_INDEX,EN_PUMP
0,120.0,0.0,0.12,0.0,0.0,0.0,0.0,0.0,2432.0385742,2432.0385742,0.0,0.0,0.0,0.555,199800.0,0.0,0.0,0.0,0.0,993.4963379,0.0,0.0,41.1114578,0.0,0.0,0.0,0.0,0.0,0.0,0.0,0.0,0.0,0.0,0.0,0.0,0.0,0.0,0.0,0.0,0.0,0.0,0.0,0.0,4.0,1.0,1.0
1715744631,120.0,0.0,0.12,0.0,0.0,0.0,0.0,0.0,2432.0385742,2432.0385742,0.0,0.0,0.0,0.555,199800.0,0.0,0.0,0.0,0.0,993.5722656,0.0,0.0,41.1114578,0.0,0.0,0.0,0.0,0.0,0.0,0.0,0.0,0.0,0.0,0.0,0.0,0.0,0.0,0.0,0.0,0.0,0.0,0.0,0.0,4.0,1.0,1.0
1715744632,120.0,0.0,0.12,0.0,0.0,0.0,0.0,0.0,2432.4746094,2432.4746094,0.0,0.0,0.0,0.555,199800.0,0.0,-6.0,-177.8000031,-1.0,993.6047363,0.0,21.6000004,41.1114578,0.0,0.0,0.0,0.0,0.0,0.0,0.0,0.0,0.0,0.0,0.0,0.0,0.0,0.0,0.0,0.0,0.0,0.0,0.0,0.0,4.0,1.0,1.0
1715744633,120.0,0.0,0.12,0.0,0.0,0.0,0.0,0.0,2433.0112305,2433.0112305,0.0,0.0,0.0,0.555,199800.0,0.0,-6.0,-177.8999939,-0.9,993.7346191,0.0,21.6000004,41.1114578,0.0,0.0,0.0,0.0,0.0,0.0,0.0,0.0,0.0,0.0,0.0,0.0,0.0,0.0,0.0,0.0,0.0,0.0,0.0,0.0,4.0,1.0,1.0
1715744634,120.0,0.0,0.12,0.0,0.0,0.0,0.0,0.0,2433.5646973,2433.5646973,0.0,0.0,0.0,0.555,199800.0,0.0,-5.9000001,-177.8000031,-1.0,994.0595703,0.0,21.5,41.1114578,0.0,0.0,0.0,0.0,0.0,0.0,0.0,0.0,0.0,0.0,0.0,0.0,0.0,0.0,0.0,0.0,0.0,0.0,0.0,0.0,4.0,1.0,1.0
1715744635,120.0,0.0,0.12,0.0,0.0,0.0,0.0,0.0,2434.1176758,2434.1176758,0.0,0.0,0.0,0.555,199800.0,0.0,-6.0,-177.8000031,-0.9,994.1787109,0.0,21.6000004,41.1114578,0.0,0.0,0.0,0.0,0.0,0.0,0.0,0.0,0.0,0.0,0.0,0.0,0.0,0.0,0.0,0.0,0.0,0.0,0.0,0.0,4.0,1.0,1.0
1715744636,120.0,0.0,0.12,0.0,0.0,0.0,0.0,0.0,2434.6708984,2434.6708984,0.0,0.0,0.0,0.555,199800.0,0.0,-6.0,-177.8000031,-0.9,994.3195801,0.0,21.6000004,41.1114578,0.0,0.0,0.0,0.0,0.0,0.0,0.0,0.0,0.0,0.0,0.0,0.0,0.0,0.0,0.0,0.0,0.0,0.0,0.0,0.0,4.0,1.0,1.0
1715744637,120.0,0.0,0.12,0.0,0.0,0.0,0.0,0.0,2435.2241211,2435.2241211,0.0,0.0,0.0,0.555,199800.0,0.0,-6.0999999,-177.6999969,-0.9,994.4279785,0.0,21.6000004,41.1114578,0.0,0.0,0.0,0.0,0.0,0.0,0.0,0.0,0.0,0.0,0.0,0.0,0.0,0.0,0.0,0.0,0.0,0.0,0.0,0.0,4.0,1.0,1.0
1715744638,120.0,0.0,0.12,0.0,0.0,0.0,0.0,0.0,2435.777832,2435.777832,0.0,0.0,0.0,0.555,199800.0,0.0,-5.9000001,-177.8999939,-0.8,996.2475586,0.0,21.6000004,41.1000748,0.0,0.0,0.0,0.0,0.0,0.0,0.0,0.0,0.0,0.0,0.0,0.0,0.0,0.0,0.0,0.0,0.0,0.0,0.0,0.0,4.0,1.0,1.0
1715744639,120.0,0.0,0.12,0.0,0.0,0.0,0.0,0.0,2436.3310547,2436.3310547,0.0,0.0,0.0,0.555,199800.0,0.0,-6.0,-177.6999969,-0.9,996.2475586,0.0,21.6000004,41.0886917,0.0,0.0,0.0,0.0,0.0,0.0,0.0,0.0,0.0,0.0,0.0,0.0,0.0,0.0,0.0,0.0,0.0,0.0,0.0,0.0,4.0,1.0,1.0
1715744640,120.0,0.0,0.12,0.0,0.0,0.0,0.0,0.0,2436.8842773,2436.8842773,0.0,0.0,0.0,0.555,199800.0,0.0,-6.0,-177.6999969,-0.9,996.2475586,0.0,21.6000004,41.0545464,0.0,0.0,0.0,0.0,0.0,0.0,0.0,0.0,0.0,0.0,0.0,0.0,0.0,0.0,0.0,0.0,0.0,0.0,0.0,0.0,4.0,1.0,1.0
1715744641,120.0,0.0,0.12,0.0,0.0,0.0,0.0,0.0,2437.4379883,2437.4379883,0.0,0.0,0.0,0.555,199800.0,0.0,-6.0,-177.6999969,-0.9,996.2475586,0.0,21.6000004,41.0431633,0.0,0.0,0.0,0.0,0.0,0.0,0.0,0.0,0.0,0.0,0.0,0.0,0.0,0.0,0.0,0.0,0.0,0.0,0.0,0.0,4.0,1.0,1.0
1715744642,120.0,0.0,0.12,0.0,0.0,0.0,0.0,0.0,2437.9916992,2437.9916992,0.0,0.0,0.0,0.555,199800.0,0.0,-5.9000001,-177.8000031,-0.9,996.2475586,0.0,21.6000004,41.0090179,0.0,0.0,0.0,0.0,0.0,0.0,0.0,0.0,0.0,0.0,0.0,0.0,0.0,0.0,0.0,0.0,0.0,0.0,0.0,0.0,4.0,1.0,1.0
1715744643,120.0,0.0,0.12,0.0,0.0,0.0,0.0,0.0,2438.5446777,2438.5446777,0.0,0.0,0.0,0.555,199800.0,0.0,-5.9000001,-177.6999969,-1.0,996.2475586,0.0,21.6000004,41.0090179,0.0,0.0,0.0,0.0,0.0,0.0,0.0,0.0,0.0,0.0,0.0,0.0,0.0,0.0,0.0,0.0,0.0,0.0,0.0,0.0,4.0,1.0,1.0
1715744644,120.0,0.0,0.12,0.0,0.0,0.0,0.0,0.0,2439.0976562,2439.0976562,0.0,0.0,0.0,0.555,199800.0,0.0,-5.9000001,-177.6999969,-0.9,996.2475586,0.0,21.6000004,41.0090179,0.0,0.0,0.0,0.0,0.0,0.0,0.0,0.0,0.0,0.0,0.0,0.0,0.0,0.0,0.0,0.0,0.0,0.0,0.0,0.0,4.0,1.0,1.0
1715744645,120.0,0.0,0.12,0.0,0.0,0.0,0.0,0.0,2439.6513672,2439.6513672,0.0,0.0,0.0,0.555,199800.0,0.0,-5.5999999,-177.6000061,-0.9,995.857666,0.0,21.6000004,40.9862556,0.0,0.0,0.0,0.0,0.0,0.0,0.0,0.0,0.0,0.0,0.0,0.0,0.0,0.0,0.0,0.0,0.0,0.0,0.0,0.0,4.0,1.0,1.0
1715744646,120.0,0.0,0.12,0.0,0.0,0.0,0.0,0.0,2440.2043457,2440.2043457,0.0,0.0,0.0,0.555,199800.0,0.0,-6.0,-177.8000031,-0.9,995.5761719,0.0,21.6000004,40.9862556,0.0,0.0,0.0,0.0,0.0,0.0,0.0,0.0,0.0,0.0,0.0,0.0,0.0,0.0,0.0,0.0,0.0,0.0,0.0,0.0,4.0,1.0,1.0
1715744647,120.0,0.0,0.12,0.0,0.0,0.0,0.0,0.0,2440.7573242,2440.7573242,0.0,0.0,0.0,0.555,199800.0,0.0,-6.0,-177.6000061,-0.9,995.5219727,0.0,21.6000004,40.9748726,0.0,0.0,0.0,0.0,0.0,0.0,0.0,0.0,0.0,0.0,0.0,0.0,0.0,0.0,0.0,0.0,0.0,0.0,0.0,0.0,4.0,1.0,1.0
1715744648,120.0,0.0,0.12,0.0,0.0,0.0,0.0,0.0,2441.3110352,2441.3110352,0.0,0.0,0.0,0.555,199800.0,0.0,-6.0999999,-177.8000031,-0.9,994.9804688,0.0,21.6000004,40.9862556,0.0,0.0,0.0,0.0,0.0,0.0,0.0,0.0,0.0,0.0,0.0,0.0,0.0,0.0,0.0,0.0,0.0,0.0,0.0,0.0,4.0,1.0,1.0
1715744649,120.0,0.0,0.12,0.0,0.0,0.0,0.0,0.0,2441.8642578,2441.8642578,0.0,0.0,0.0,0.555,199800.0,0.0,-5.9000001,-177.6999969,-0.9,994.8613281,0.0,21.6000004,40.9976387,0.0,0.0,0.0,0.0,0.0,0.0,0.0,0.0,0.0,0.0,0.0,0.0,0.0,0.0,0.0,0.0,0.0,0.0,0.0,0.0,4.0,1.0,1.0
1715744650,120.0,0.0,0.12,0.0,0.0,0.0,0.0,0.0,2442.4172363,2442.4172363,0.0,0.0,0.0,0.555,199800.0,0.0,-6.0,-177.6999969,-0.8,994.2653809,0.0,21.6000004,41.0090179,0.0,0.0,0.0,0.0,0.0,0.0,0.0,0.0,0.0,0.0,0.0,0.0,0.0,0.0,0.0,0.0,0.0,0.0,0.0,0.0,4.0,1.0,1.0
1715744651,120.0,0.0,0.12,0.0,0.0,0.0,0.0,0.0,2442.9702148,2442.9702148,0.0,0.0,0.0,0.555,199800.0,0.0,-5.9000001,-177.8000031,-0.9,994.222168,0.0,21.6000004,40.9976387,0.0,0.0,0.0,0.0,0.0,0.0,0.0,0.0,0.0,0.0,0.0,0.0,0.0,0.0,0.0,0.0,0.0,0.0,0.0,0.0,4.0,1.0,1.0
1715744652,120.0,0.0,0.12,0.0,0.0,0.0,0.0,0.0,2443.5236816,2443.5236816,0.0,0.0,0.0,0.555,199800.0,0.0,-6.0,-177.6000061,-0.8,993.723877,0.0,21.6000004,40.9748726,0.0,0.0,0.0,0.0,0.0,0.0,0.0,0.0,0.0,0.0,0.0,0.0,0.0,0.0,0.0,0.0,0.0,0.0,0.0,0.0,4.0,1.0,1.0
1715744653,120.0,0.0,0.12,0.0,0.0,0.0,0.0,0.0,2444.0769043,2444.0769043,0.0,0.0,0.0,0.555,199800.0,0.0,-5.9000001,-177.8000031,-0.9,991.5249023,0.0,21.6000004,40.9748726,0.0,0.0,0.0,0.0,0.0,0.0,0.0,0.0,0.0,0.0,0.0,0.0,0.0,0.0,0.0,0.0,0.0,0.0,0.0,0.0,4.0,1.0,1.0
1715744654,120.0,0.0,0.12,0.0,0.0,0.0,0.0,0.0,2444.630127,2444.630127,0.0,0.0,0.0,0.555,199800.0,0.0,-6.0,-177.6999969,-1.0,989.671875,0.0,21.6000004,40.9748726,0.0,0.0,0.0,0.0,0.0,0.0,0.0,0.0,0.0,0.0,0.0,0.0,0.0,0.0,0.0,0.0,0.0,0.0,0.0,0.0,4.0,1.0,1.0
1715744655,120.0,0.0,0.12,0.0,0.0,0.0,0.0,0.0,2445.1835937,2445.1835937,0.0,0.0,0.0,0.555,199800.0,0.0,-5.8000002,-177.6999969,-0.9,989.0866699,0.0,21.6000004,40.9976387,0.0,0.0,0.0,0.0,0.0,0.0,0.0,0.0,0.0,0.0,0.0,0.0,0.0,0.0,0.0,0.0,0.0,0.0,0.0,0.0,4.0,1.0,1.0
1715744656,120.0,0.0,0.12,0.0,0.0,0.0,0.0,0.0,2445.7363281,2445.7363281,0.0,0.0,0.0,0.555,199800.0,0.0,-5.8000002,-177.6000061,-0.9,988.8266602,0.0,21.5,41.0090179,0.0,0.0,0.0,0.0,0.0,0.0,0.0,0.0,0.0,0.0,0.0,0.0,0.0,0.0,0.0,0.0,0.0,0.0,0.0,0.0,4.0,1.0,1.0
1715744657,120.0,0.0,0.12,0.0,0.0,0.0,0.0,0.0,2446.2841797,2446.2841797,0.0,0.0,0.0,0.555,199800.0,0.0,-5.9000001,-177.8000031,-0.8,988.6098633,0.0,21.5,40.9976387,0.0,0.0,0.0,0.0,0.0,0.0,0.0,0.0,0.0,0.0,0.0,0.0,0.0,0.0,0.0,0.0,0.0,0.0,0.0,0.0,4.0,1.0,1.0
1715744658,120.0,0.0,0.12,0.0,0.0,0.0,0.0,0.0,2446.8374023,2446.8374023,0.0,0.0,0.0,0.555,199800.0,0.0,-5.8000002,-177.8000031,-0.9,987.9052734,0.0,21.5,40.9862556,0.0,0.0,0.0,0.0,0.0,0.0,0.0,0.0,0.0,0.0,0.0,0.0,0.0,0.0,0.0,0.0,0.0,0.0,0.0,0.0,4.0,1.0,1.0
1715744659,120.0,0.0,0.12,0.0,0.0,0.0,0.0,0.0,2447.390625,2447.390625,0.0,0.0,0.0,0.555,199800.0,0.0,-5.8000002,-177.6999969,-0.9,987.5043945,0.0,21.5,40.9748726,0.0,0.0,0.0,0.0,0.0,0.0,0.0,0.0,0.0,0.0,0.0,0.0,0.0,0.0,0.0,0.0,0.0,0.0,0.0,0.0,4.0,1.0,1.0
1715744660,120.0,0.0,0.12,0.0,0.0,0.0,0.0,0.0,2447.9438477,2447.9438477,0.0,0.0,0.0,0.555,199800.0,0.0,-5.9000001,-177.8999939,-0.9,987.298584,0.0,21.6000004,40.9748726,0.0,0.0,0.0,0.0,0.0,0.0,0.0,0.0,0.0,0.0,0.0,0.0,0.0,0.0,0.0,0.0,0.0,0.0,0.0,0.0,4.0,1.0,1.0
1715744661,120.0,0.0,0.12,0.0,0.0,0.0,0.0,0.0,2448.4975586,2448.4975586,0.0,0.0,0.0,0.555,199800.0,0.0,-6.0,-177.8000031,-0.9,986.9516602,0.0,21.6000004,40.9862556,0.0,0.0,0.0,0.0,0.0,0.0,0.0,0.0,0.0,0.0,0.0,0.0,0.0,0.0,0.0,0.0,0.0,0.0,0.0,0.0,4.0,1.0,1.0
1715744662,120.0,0.0,0.12,0.0,0.0,0.0,0.0,0.0,2449.0505371,2449.0505371,0.0,0.0,0.0,0.555,199800.0,0.0,-5.9000001,-177.8000031,-0.9,986.583252,0.0,21.6000004,40.9976387,0.0,0.0,0.0,0.0,0.0,0.0,0.0,0.0,0.0,0.0,0.0,0.0,0.0,0.0,0.0,0.0,0.0,0.0,0.0,0.0,4.0,1.0,1.0
1715744663,120.0,0.0,0.12,0.0,0.0,0.0,0.0,0.0,2449.6040039,2449.6040039,0.0,0.0,0.0,0.555,199800.0,0.0,-6.0999999,-177.6999969,-0.9,986.5397949,0.0,21.6000004,40.9976387,0.0,0.0,0.0,0.0,0.0,0.0,0.0,0.0,0.0,0.0,0.0,0.0,0.0,0.0,0.0,0.0,0.0,0.0,0.0,0.0,4.0,1.0,1.0
1715744664,120.0,0.0,0.12,0.0,0.0,0.0,0.0,0.0,2450.1572266,2450.1572266,0.0,0.0,0.0,0.555,199800.0,0.0,-5.9000001,-177.8000031,-0.9,985.7375488,0.0,21.6000004,40.9862556,0.0,0.0,0.0,0.0,0.0,0.0,0.0,0.0,0.0,0.0,0.0,0.0,0.0,0.0,0.0,0.0,0.0,0.0,0.0,0.0,4.0,1.0,1.0
1715744665,120.0,0.0,0.12,0.0,0.0,0.0,0.0,0.0,2450.7104492,2450.7104492,0.0,0.0,0.0,0.555,199800.0,0.0,-5.9000001,-177.8999939,-0.8,985.2607422,0.0,21.6000004,40.9748726,0.0,0.0,0.0,0.0,0.0,0.0,0.0,0.0,0.0,0.0,0.0,0.0,0.0,0.0,0.0,0.0,0.0,0.0,0.0,0.0,4.0,1.0,1.0
1715744666,120.0,0.0,0.12,0.0,0.0,0.0,0.0,0.0,2451.2636719,2451.2636719,0.0,0.0,0.0,0.555,199800.0,0.0,-6.0,-177.8000031,-0.9,983.8730469,0.0,21.6000004,40.9748726,0.0,0.0,0.0,0.0,0.0,0.0,0.0,0.0,0.0,0.0,0.0,0.0,0.0,0.0,0.0,0.0,0.0,0.0,0.0,0.0,4.0,1.0,1.0
1715744667,120.0,0.0,0.12,0.0,0.0,0.0,0.0,0.0,2451.8168945,2451.8168945,0.0,0.0,0.0,0.555,199800.0,0.0,-5.9000001,-177.8999939,-0.9,981.9106445,0.0,21.6000004,40.9748726,0.0,0.0,0.0,0.0,0.0,0.0,0.0,0.0,0.0,0.0,0.0,0.0,0.0,0.0,0.0,0.0,0.0,0.0,0.0,0.0,4.0,1.0,1.0
1715744668,120.0,0.0,0.12,0.0,0.0,0.0,0.0,0.0,2452.3703613,2452.3703613,0.0,0.0,0.0,0.555,199800.0,0.0,-5.9000001,-177.8000031,-1.0,981.1296387,0.0,21.6000004,40.9862556,0.0,0.0,0.0,0.0,0.0,0.0,0.0,0.0,0.0,0.0,0.0,0.0,0.0,0.0,0.0,0.0,0.0,0.0,0.0,0.0,4.0,1.0,1.0
1715744669,120.0,0.0,0.12,0.0,0.0,0.0,0.0,0.0,2452.9233398,2452.9233398,0.0,0.0,0.0,0.555,199800.0,0.0,-6.0,-177.6999969,-0.9,979.8933105,0.0,21.6000004,40.9976387,0.0,0.0,0.0,0.0,0.0,0.0,0.0,0.0,0.0,0.0,0.0,0.0,0.0,0.0,0.0,0.0,0.0,0.0,0.0,0.0,4.0,1.0,1.0
1715744670,120.0,0.0,0.12,0.0,0.0,0.0,0.0,0.0,2453.4765625,2453.4765625,0.0,0.0,0.0,0.555,199800.0,0.0,-5.8000002,-177.6000061,-0.9,979.7631836,0.0,21.6000004,40.9862556,0.0,0.0,0.0,0.0,0.0,0.0,0.0,0.0,0.0,0.0,0.0,0.0,0.0,0.0,0.0,0.0,0.0,0.0,0.0,0.0,4.0,1.0,1.0
1715744671,120.0,0.0,0.12,0.0,0.0,0.0,0.0,0.0,2454.0297852,2454.0297852,0.0,0.0,0.0,0.555,199800.0,0.0,-5.9000001,-177.8000031,-0.9,979.7197266,0.0,21.6000004,40.9748726,0.0,0.0,0.0,0.0,0.0,0.0,0.0,0.0,0.0,0.0,0.0,0.0,0.0,0.0,0.0,0.0,0.0,0.0,0.0,0.0,4.0,1.0,1.0
1715744672,120.0,0.0,0.12,0.0,0.0,0.0,0.0,0.0,2454.5827637,2454.5827637,0.0,0.0,0.0,0.555,199800.0,0.0,-5.9000001,-177.6999969,-0.9,979.296875,0.0,21.6000004,40.9634895,0.0,0.0,0.0,0.0,0.0,0.0,0.0,0.0,0.0,0.0,0.0,0.0,0.0,0.0,0.0,0.0,0.0,0.0,0.0,0.0,4.0,1.0,1.0
1715744673,120.0,0.0,0.12,0.0,0.0,0.0,0.0,0.0,2455.1362305,2455.1362305,0.0,0.0,0.0,0.555,199800.0,0.0,-5.9000001,-177.8000031,-0.9,979.1992188,0.0,21.6000004,40.9748726,0.0,0.0,0.0,0.0,0.0,0.0,0.0,0.0,0.0,0.0,0.0,0.0,0.0,0.0,0.0,0.0,0.0,0.0,0.0,0.0,4.0,1.0,1.0
1715744674,120.0,0.0,0.12,0.0,0.0,0.0,0.0,0.0,2455.6894531,2455.6894531,0.0,0.0,0.0,0.555,199800.0,0.0,-6.1999998,-177.8000031,-1.0,978.9389648,0.0,21.6000004,40.9748726,0.0,0.0,0.0,0.0,0.0,0.0,0.0,0.0,0.0,0.0,0.0,0.0,0.0,0.0,0.0,0.0,0.0,0.0,0.0,0.0,4.0,1.0,1.0
1715744675,120.0,0.0,0.12,0.0,0.0,0.0,0.0,0.0,2456.2421875,2456.2421875,0.0,0.0,0.0,0.555,199800.0,0.0,-5.9000001,-177.8000031,-0.9,978.6459961,0.0,21.6000004,40.9976387,0.0,0.0,0.0,0.0,0.0,0.0,0.0,0.0,0.0,0.0,0.0,0.0,0.0,0.0,0.0,0.0,0.0,0.0,0.0,0.0,4.0,1.0,1.0
1715744676,120.0,0.0,0.12,0.0,0.0,0.0,0.0,0.0,2456.7954102,2456.7954102,0.0,0.0,0.0,0.555,199800.0,0.0,-6.0,-177.6999969,-0.9,977.940918,0.0,21.6000004,40.9862556,0.0,0.0,0.0,0.0,0.0,0.0,0.0,0.0,0.0,0.0,0.0,0.0,0.0,0.0,0.0,0.0,0.0,0.0,0.0,0.0,4.0,1.0,1.0
1715744677,120.0,0.0,0.12,0.0,0.0,0.0,0.0,0.0,2457.348877,2457.348877,0.0,0.0,0.0,0.555,199800.0,0.0,-5.8000002,-177.6999969,-0.9,977.4204102,0.0,21.6000004,40.9748726,0.0,0.0,0.0,0.0,0.0,0.0,0.0,0.0,0.0,0.0,0.0,0.0,0.0,0.0,0.0,0.0,0.0,0.0,0.0,0.0,4.0,1.0,1.0
1715744678,120.0,0.0,0.12,0.0,0.0,0.0,0.0,0.0,2457.9023437,2457.9023437,0.0,0.0,0.0,0.555,199800.0,0.0,-5.9000001,-177.8000031,-0.8,975.9665527,0.0,21.6000004,40.9748726,0.0,0.0,0.0,0.0,0.0,0.0,0.0,0.0,0.0,0.0,0.0,0.0,0.0,0.0,0.0,0.0,0.0,0.0,0.0,0.0,4.0,1.0,1.0
1715744679,120.0,0.0,0.12,0.0,0.0,0.0,0.0,0.0,2458.4555664,2458.4555664,0.0,0.0,0.0,0.555,199800.0,0.0,-5.9000001,-177.6999969,-0.9,975.0769043,0.0,21.6000004,40.9748726,0.0,0.0,0.0,0.0,0.0,0.0,0.0,0.0,0.0,0.0,0.0,0.0,0.0,0.0,0.0,0.0,0.0,0.0,0.0,0.0,4.0,1.0,1.0
1715744680,120.0,0.0,0.12,0.0,0.0,0.0,0.0,0.0,2459.0090332,2459.0090332,0.0,0.0,0.0,0.555,199800.0,0.0,-6.0,-177.8000031,-1.0,972.9824219,0.0,21.6000004,40.9748726,0.0,0.0,0.0,0.0,0.0,0.0,0.0,0.0,0.0,0.0,0.0,0.0,0.0,0.0,0.0,0.0,0.0,0.0,0.0,0.0,4.0,1.0,1.0
1715744681,120.0,0.0,0.12,0.0,0.0,0.0,0.0,0.0,2459.5620117,2459.5620117,0.0,0.0,0.0,0.555,199800.0,0.0,-5.8000002,-177.8000031,-1.0,972.157959,0.0,21.5,40.9862556,0.0,0.0,0.0,0.0,0.0,0.0,0.0,0.0,0.0,0.0,0.0,0.0,0.0,0.0,0.0,0.0,0.0,0.0,0.0,0.0,4.0,0.0,1.0
1715744682,120.0,0.0,0.12,0.0,0.0,0.0,0.0,0.0,2460.109375,2460.109375,0.0,0.0,0.0,0.555,199800.0,0.0,-6.0,-177.6999969,-1.0,972.0710449,0.0,21.6000004,40.9862556,0.0,0.0,0.0,0.0,0.0,0.0,0.0,0.0,0.0,0.0,0.0,0.0,0.0,0.0,0.0,0.0,0.0,0.0,0.0,0.0,4.0,1.0,1.0
1715744683,120.0,0.0,0.12,0.0,0.0,0.0,0.0,0.0,2460.6628418,2460.6628418,0.0,0.0,0.0,0.555,199800.0,0.0,-5.9000001,-177.6999969,-0.8,971.8974609,0.0,21.6000004,40.9862556,0.0,0.0,0.0,0.0,0.0,0.0,0.0,0.0,0.0,0.0,0.0,0.0,0.0,0.0,0.0,0.0,0.0,0.0,0.0,0.0,4.0,1.0,1.0
1715744684,120.0,0.0,0.12,0.0,0.0,0.0,0.0,0.0,2461.2163086,2461.2163086,0.0,0.0,0.0,0.555,199800.0,0.0,-5.8000002,-177.6999969,-0.9,971.0615234,0.0,21.6000004,40.9748726,0.0,0.0,0.0,0.0,0.0,0.0,0.0,0.0,0.0,0.0,0.0,0.0,0.0,0.0,0.0,0.0,0.0,0.0,0.0,0.0,4.0,1.0,1.0
1715744685,120.0,0.0,0.12,0.0,0.0,0.0,0.0,0.0,2461.7695312,2461.7695312,0.0,0.0,0.0,0.555,199800.0,0.0,-6.0,-177.6999969,-0.9,970.8227539,0.0,21.6000004,40.9748726,0.0,0.0,0.0,0.0,0.0,0.0,0.0,0.0,0.0,0.0,0.0,0.0,0.0,0.0,0.0,0.0,0.0,0.0,0.0,0.0,4.0,1.0,1.0
1715744686,120.0,0.0,0.12,0.0,0.0,0.0,0.0,0.0,2462.3227539,2462.3227539,0.0,0.0,0.0,0.555,199800.0,0.0,-5.9000001,-177.6999969,-0.9,970.7902832,0.0,21.6000004,40.9748726,0.0,0.0,0.0,0.0,0.0,0.0,0.0,0.0,0.0,0.0,0.0,0.0,0.0,0.0,0.0,0.0,0.0,0.0,0.0,0.0,4.0,1.0,1.0
1715744687,120.0,0.0,0.12,0.0,0.0,0.0,0.0,0.0,2462.8762207,2462.8762207,0.0,0.0,0.0,0.555,199800.0,0.0,-6.0,-177.8000031,-0.9,970.7685547,0.0,21.6000004,40.9862556,0.0,0.0,0.0,0.0,0.0,0.0,0.0,0.0,0.0,0.0,0.0,0.0,0.0,0.0,0.0,0.0,0.0,0.0,0.0,0.0,4.0,1.0,1.0
1715744688,120.0,0.0,0.12,0.0,0.0,0.0,0.0,0.0,2463.4291992,2463.4291992,0.0,0.0,0.0,0.555,199800.0,0.0,-5.8000002,-177.6999969,-0.8,970.2148438,0.0,21.6000004,40.9862556,0.0,0.0,0.0,0.0,0.0,0.0,0.0,0.0,0.0,0.0,0.0,0.0,0.0,0.0,0.0,0.0,0.0,0.0,0.0,0.0,4.0,1.0,1.0
1715744689,120.0,0.0,0.12,0.0,0.0,0.0,0.0,0.0,2463.9824219,2463.9824219,0.0,0.0,0.0,0.555,199800.0,0.0,-6.0,-177.8000031,-0.8,970.0195313,0.0,21.6000004,40.9862556,0.0,0.0,0.0,0.0,0.0,0.0,0.0,0.0,0.0,0.0,0.0,0.0,0.0,0.0,0.0,0.0,0.0,0.0,0.0,0.0,4.0,1.0,1.0
1715744690,120.0,0.0,0.12,0.0,0.0,0.0,0.0,0.0,2464.5356445,2464.5356445,0.0,0.0,0.0,0.555,199800.0,0.0,-5.9000001,-177.6000061,-0.8,969.7373047,0.0,21.6000004,40.9748726,0.0,0.0,0.0,0.0,0.0,0.0,0.0,0.0,0.0,0.0,0.0,0.0,0.0,0.0,0.0,0.0,0.0,0.0,0.0,0.0,4.0,1.0,1.0
1715744691,120.0,0.0,0.12,0.0,0.0,0.0,0.0,0.0,2465.0891113,2465.0891113,0.0,0.0,0.0,0.555,199800.0,0.0,-5.8000002,-177.8999939,-0.8,966.7626953,0.0,21.6000004,40.9748726,0.0,0.0,0.0,0.0,0.0,0.0,0.0,0.0,0.0,0.0,0.0,0.0,0.0,0.0,0.0,0.0,0.0,0.0,0.0,0.0,4.0,1.0,1.0
1715744692,120.0,0.0,0.12,0.0,0.0,0.0,0.0,0.0,2465.6420898,2465.6420898,0.0,0.0,0.0,0.555,199800.0,0.0,-6.0,-177.5,-0.8,965.8723145,0.0,21.6000004,40.9748726,0.0,0.0,0.0,0.0,0.0,0.0,0.0,0.0,0.0,0.0,0.0,0.0,0.0,0.0,0.0,0.0,0.0,0.0,0.0,0.0,4.0,1.0,1.0
1715744693,120.0,0.0,0.12,0.0,0.0,0.0,0.0,0.0,2466.1958008,2466.1958008,0.0,0.0,0.0,0.555,199800.0,0.0,-5.9000001,-177.6999969,-0.8,965.2749023,0.0,21.6000004,40.9748726,0.0,0.0,0.0,0.0,0.0,0.0,0.0,0.0,0.0,0.0,0.0,0.0,0.0,0.0,0.0,0.0,0.0,0.0,0.0,0.0,4.0,1.0,1.0
1715744694,120.0,0.0,0.12,0.0,0.0,0.0,0.0,0.0,2466.7490234,2466.7490234,0.0,0.0,0.0,0.555,199800.0,0.0,-5.8000002,-177.6999969,-0.9,964.1889648,0.0,21.6000004,40.9862556,0.0,0.0,0.0,0.0,0.0,0.0,0.0,0.0,0.0,0.0,0.0,0.0,0.0,0.0,0.0,0.0,0.0,0.0,0.0,0.0,4.0,1.0,1.0
1715744695,120.0,0.0,0.12,0.0,0.0,0.0,0.0,0.0,2467.3022461,2467.3022461,0.0,0.0,0.0,0.555,199800.0,0.0,-6.0999999,-177.5,-0.9,963.7001953,0.0,21.6000004,40.9862556,0.0,0.0,0.0,0.0,0.0,0.0,0.0,0.0,0.0,0.0,0.0,0.0,0.0,0.0,0.0,0.0,0.0,0.0,0.0,0.0,4.0,1.0,1.0
1715744696,120.0,0.0,0.12,0.0,0.0,0.0,0.0,0.0,2467.8552246,2467.8552246,0.0,0.0,0.0,0.555,199800.0,0.0,-5.9000001,-177.6999969,-0.8,962.7333984,0.0,21.5,40.9748726,0.0,0.0,0.0,0.0,0.0,0.0,0.0,0.0,0.0,0.0,0.0,0.0,0.0,0.0,0.0,0.0,0.0,0.0,0.0,0.0,4.0,1.0,1.0
1715744697,120.0,0.0,0.12,0.0,0.0,0.0,0.0,0.0,2468.4086914,2468.4086914,0.0,0.0,0.0,0.555,199800.0,0.0,-6.0,-177.8000031,-0.9,962.5705566,0.0,21.6000004,40.9748726,0.0,0.0,0.0,0.0,0.0,0.0,0.0,0.0,0.0,0.0,0.0,0.0,0.0,0.0,0.0,0.0,0.0,0.0,0.0,0.0,4.0,1.0,1.0
1715744698,120.0,0.0,0.12,0.0,0.0,0.0,0.0,0.0,2468.9621582,2468.9621582,0.0,0.0,0.0,0.555,199800.0,0.0,-5.8000002,-177.8000031,-0.9,962.4943848,0.0,21.6000004,40.9748726,0.0,0.0,0.0,0.0,0.0,0.0,0.0,0.0,0.0,0.0,0.0,0.0,0.0,0.0,0.0,0.0,0.0,0.0,0.0,0.0,4.0,1.0,1.0
1715744699,120.0,0.0,0.12,0.0,0.0,0.0,0.0,0.0,2469.5153809,2469.5153809,0.0,0.0,0.0,0.555,199800.0,0.0,-5.9000001,-177.8000031,-0.9,962.0598145,0.0,21.6000004,40.9748726,0.0,0.0,0.0,0.0,0.0,0.0,0.0,0.0,0.0,0.0,0.0,0.0,0.0,0.0,0.0,0.0,0.0,0.0,0.0,0.0,4.0,1.0,1.0
1715744700,120.0,0.0,0.12,0.0,0.0,0.0,0.0,0.0,2470.0688477,2470.0688477,0.0,0.0,0.0,0.555,199800.0,0.0,-6.0,-177.6999969,-0.9,961.9511719,0.0,21.5,40.9748726,0.0,0.0,0.0,0.0,0.0,0.0,0.0,0.0,0.0,0.0,0.0,0.0,0.0,0.0,0.0,0.0,0.0,0.0,0.0,0.0,4.0,1.0,1.0
1715744701,120.0,0.0,0.12,0.0,0.0,0.0,0.0,0.0,2470.6218262,2470.6218262,0.0,0.0,0.0,0.555,199800.0,0.0,-6.0,-177.6000061,-0.8,961.8972168,0.0,21.5,40.9862556,0.0,0.0,0.0,0.0,0.0,0.0,0.0,0.0,0.0,0.0,0.0,0.0,0.0,0.0,0.0,0.0,0.0,0.0,0.0,0.0,4.0,1.0,1.0
1715744702,120.0,0.0,0.12,0.0,0.0,0.0,0.0,0.0,2471.175293,2471.175293,0.0,0.0,0.0,0.555,199800.0,0.0,-6.0,-177.8999939,-0.8,961.7775879,0.0,21.5,40.9748726,0.0,0.0,0.0,0.0,0.0,0.0,0.0,0.0,0.0,0.0,0.0,0.0,0.0,0.0,0.0,0.0,0.0,0.0,0.0,0.0,4.0,1.0,1.0
1715744703,120.0,0.0,0.12,0.0,0.0,0.0,0.0,0.0,2471.7282715,2471.7282715,0.0,0.0,0.0,0.555,199800.0,0.0,-6.0,-177.8000031,-0.8,959.9741211,0.0,21.6000004,40.9748726,0.0,0.0,0.0,0.0,0.0,0.0,0.0,0.0,0.0,0.0,0.0,0.0,0.0,0.0,0.0,0.0,0.0,0.0,0.0,0.0,4.0,1.0,1.0
1715744704,120.0,0.0,0.12,0.0,0.0,0.0,0.0,0.0,2472.2817383,2472.2817383,0.0,0.0,0.0,0.555,199800.0,0.0,-5.9000001,-177.8000031,-0.9,958.5942383,0.0,21.6000004,40.9521103,0.0,0.0,0.0,0.0,0.0,0.0,0.0,0.0,0.0,0.0,0.0,0.0,0.0,0.0,0.0,0.0,0.0,0.0,0.0,0.0,4.0,1.0,1.0
1715744705,120.0,0.0,0.12,0.0,0.0,0.0,0.0,0.0,2472.8352051,2472.8352051,0.0,0.0,0.0,0.555,199800.0,0.0,-5.8000002,-177.8000031,-0.9,956.4970703,0.0,21.6000004,40.9634895,0.0,0.0,0.0,0.0,0.0,0.0,0.0,0.0,0.0,0.0,0.0,0.0,0.0,0.0,0.0,0.0,0.0,0.0,0.0,0.0,4.0,1.0,1.0
1715744706,120.0,0.0,0.12,0.0,0.0,0.0,0.0,0.0,2473.3884277,2473.3884277,0.0,0.0,0.0,0.555,199800.0,0.0,-5.8000002,-177.6999969,-0.9,956.4208984,0.0,21.5,40.9748726,0.0,0.0,0.0,0.0,0.0,0.0,0.0,0.0,0.0,0.0,0.0,0.0,0.0,0.0,0.0,0.0,0.0,0.0,0.0,0.0,4.0,1.0,1.0
1715744707,120.0,0.0,0.12,0.0,0.0,0.0,0.0,0.0,2473.9355469,2473.9355469,0.0,0.0,0.0,0.555,199800.0,0.0,-5.9000001,-177.6999969,-0.9,955.8557129,0.0,21.5,40.9862556,0.0,0.0,0.0,0.0,0.0,0.0,0.0,0.0,0.0,0.0,0.0,0.0,0.0,0.0,0.0,0.0,0.0,0.0,0.0,0.0,4.0,1.0,1.0
1715744708,120.0,0.0,0.12,0.0,0.0,0.0,0.0,0.0,2474.4887695,2474.4887695,0.0,0.0,0.0,0.555,199800.0,0.0,-5.9000001,-177.6999969,-0.9,954.7145996,0.0,21.5,40.9748726,0.0,0.0,0.0,0.0,0.0,0.0,0.0,0.0,0.0,0.0,0.0,0.0,0.0,0.0,0.0,0.0,0.0,0.0,0.0,0.0,4.0,1.0,1.0
1715744709,120.0,0.0,0.12,0.0,0.0,0.0,0.0,0.0,2475.041748,2475.041748,0.0,0.0,0.0,0.555,199800.0,0.0,-6.0,-177.6000061,-0.9,954.6057129,0.0,21.5,40.9748726,0.0,0.0,0.0,0.0,0.0,0.0,0.0,0.0,0.0,0.0,0.0,0.0,0.0,0.0,0.0,0.0,0.0,0.0,0.0,0.0,4.0,1.0,1.0
1715744710,120.0,0.0,0.12,0.0,0.0,0.0,0.0,0.0,2475.5949707,2475.5949707,0.0,0.0,0.0,0.555,199800.0,0.0,-6.0,-177.6999969,-0.9,954.2036133,0.0,21.5,40.9634895,0.0,0.0,0.0,0.0,0.0,0.0,0.0,0.0,0.0,0.0,0.0,0.0,0.0,0.0,0.0,0.0,0.0,0.0,0.0,0.0,4.0,1.0,1.0
1715744711,120.0,0.0,0.12,0.0,0.0,0.0,0.0,0.0,2476.1481934,2476.1481934,0.0,0.0,0.0,0.555,199800.0,0.0,-5.9000001,-177.6000061,-0.9,953.5622559,0.0,21.5,40.9634895,0.0,0.0,0.0,0.0,0.0,0.0,0.0,0.0,0.0,0.0,0.0,0.0,0.0,0.0,0.0,0.0,0.0,0.0,0.0,0.0,4.0,1.0,1.0
1715744712,120.0,0.0,0.12,0.0,0.0,0.0,0.0,0.0,2476.701416,2476.701416,0.0,0.0,0.0,0.555,199800.0,0.0,-6.0,-177.6999969,-0.8,953.5405273,0.0,21.5,40.9748726,0.0,0.0,0.0,0.0,0.0,0.0,0.0,0.0,0.0,0.0,0.0,0.0,0.0,0.0,0.0,0.0,0.0,0.0,0.0,0.0,4.0,1.0,1.0
1715744713,120.0,0.0,0.12,0.0,0.0,0.0,0.0,0.0,2477.2543945,2477.2543945,0.0,0.0,0.0,0.555,199800.0,0.0,-6.0,-177.6000061,-0.9,953.3774414,0.0,21.6000004,40.9748726,0.0,0.0,0.0,0.0,0.0,0.0,0.0,0.0,0.0,0.0,0.0,0.0,0.0,0.0,0.0,0.0,0.0,0.0,0.0,0.0,4.0,1.0,1.0
1715744714,120.0,0.0,0.12,0.0,0.0,0.0,0.0,0.0,2477.8078613,2477.8078613,0.0,0.0,0.0,0.555,199800.0,0.0,-6.0,-177.6999969,-0.8,953.1274414,0.0,21.6000004,40.9748726,0.0,0.0,0.0,0.0,0.0,0.0,0.0,0.0,0.0,0.0,0.0,0.0,0.0,0.0,0.0,0.0,0.0,0.0,0.0,0.0,4.0,1.0,1.0
1715744715,120.0,0.0,0.12,0.0,0.0,0.0,0.0,0.0,2478.361084,2478.361084,0.0,0.0,0.0,0.555,199800.0,0.0,-5.9000001,-177.8000031,-0.8,951.7573242,0.0,21.6000004,40.9748726,0.0,0.0,0.0,0.0,0.0,0.0,0.0,0.0,0.0,0.0,0.0,0.0,0.0,0.0,0.0,0.0,0.0,0.0,0.0,0.0,4.0,1.0,1.0
1715744716,120.0,0.0,0.12,0.0,0.0,0.0,0.0,0.0,2478.9145508,2478.9145508,0.0,0.0,0.0,0.555,199800.0,0.0,-6.0,-177.8000031,-0.9,949.9743652,0.0,21.6000004,40.9634895,0.0,0.0,0.0,0.0,0.0,0.0,0.0,0.0,0.0,0.0,0.0,0.0,0.0,0.0,0.0,0.0,0.0,0.0,0.0,0.0,4.0,1.0,1.0
1715744717,120.0,0.0,0.12,0.0,0.0,0.0,0.0,0.0,2479.4677734,2479.4677734,0.0,0.0,0.0,0.555,199800.0,0.0,-5.9000001,-177.8000031,-0.9,948.2668457,0.0,21.6000004,40.9634895,0.0,0.0,0.0,0.0,0.0,0.0,0.0,0.0,0.0,0.0,0.0,0.0,0.0,0.0,0.0,0.0,0.0,0.0,0.0,0.0,4.0,1.0,1.0
1715744718,120.0,0.0,0.12,0.0,0.0,0.0,0.0,0.0,2480.0212402,2480.0212402,0.0,0.0,0.0,0.555,199800.0,0.0,-6.0,-177.6999969,-0.9,947.6796875,0.0,21.6000004,40.9634895,0.0,0.0,0.0,0.0,0.0,0.0,0.0,0.0,0.0,0.0,0.0,0.0,0.0,0.0,0.0,0.0,0.0,0.0,0.0,0.0,4.0,1.0,1.0
1715744719,120.0,0.0,0.12,0.0,0.0,0.0,0.0,0.0,2480.574707,2480.574707,0.0,0.0,0.0,0.555,199800.0,0.0,-5.9000001,-177.6000061,-0.9,946.798584,0.0,21.5,40.9748726,0.0,0.0,0.0,0.0,0.0,0.0,0.0,0.0,0.0,0.0,0.0,0.0,0.0,0.0,0.0,0.0,0.0,0.0,0.0,0.0,4.0,1.0,1.0
1715744720,120.0,0.0,0.12,0.0,0.0,0.0,0.0,0.0,2481.1274414,2481.1274414,0.0,0.0,0.0,0.555,199800.0,0.0,-5.8000002,-178.0,-0.9,946.5700684,0.0,21.5,40.9748726,0.0,0.0,0.0,0.0,0.0,0.0,0.0,0.0,0.0,0.0,0.0,0.0,0.0,0.0,0.0,0.0,0.0,0.0,0.0,0.0,4.0,1.0,1.0
1715744721,120.0,0.0,0.12,0.0,0.0,0.0,0.0,0.0,2481.6806641,2481.6806641,0.0,0.0,0.0,0.555,199800.0,0.0,-5.9000001,-177.6999969,-1.0,945.4824219,0.0,21.5,40.9748726,0.0,0.0,0.0,0.0,0.0,0.0,0.0,0.0,0.0,0.0,0.0,0.0,0.0,0.0,0.0,0.0,0.0,0.0,0.0,0.0,4.0,1.0,1.0
1715744722,120.0,0.0,0.12,0.0,0.0,0.0,0.0,0.0,2482.2338867,2482.2338867,0.0,0.0,0.0,0.555,199800.0,0.0,-5.9000001,-177.6999969,-0.8,945.4716797,0.0,21.6000004,40.9634895,0.0,0.0,0.0,0.0,0.0,0.0,0.0,0.0,0.0,0.0,0.0,0.0,0.0,0.0,0.0,0.0,0.0,0.0,0.0,0.0,4.0,1.0,1.0
1715744723,120.0,0.0,0.12,0.0,0.0,0.0,0.0,0.0,2482.7873535,2482.7873535,0.0,0.0,0.0,0.555,199800.0,0.0,-6.0,-177.8000031,-0.9,945.3955078,0.0,21.6000004,40.9521103,0.0,0.0,0.0,0.0,0.0,0.0,0.0,0.0,0.0,0.0,0.0,0.0,0.0,0.0,0.0,0.0,0.0,0.0,0.0,0.0,4.0,1.0,1.0
1715744724,120.0,0.0,0.12,0.0,0.0,0.0,0.0,0.0,2483.3410645,2483.3410645,0.0,0.0,0.0,0.555,199800.0,0.0,-6.0,-177.6999969,-1.0,944.9929199,0.0,21.6000004,40.9521103,0.0,0.0,0.0,0.0,0.0,0.0,0.0,0.0,0.0,0.0,0.0,0.0,0.0,0.0,0.0,0.0,0.0,0.0,0.0,0.0,4.0,1.0,1.0
1715744725,120.0,0.0,0.12,0.0,0.0,0.0,0.0,0.0,2483.8942871,2483.8942871,0.0,0.0,0.0,0.555,199800.0,0.0,-5.9000001,-177.6000061,-0.9,944.8515625,0.0,21.6000004,40.9634895,0.0,0.0,0.0,0.0,0.0,0.0,0.0,0.0,0.0,0.0,0.0,0.0,0.0,0.0,0.0,0.0,0.0,0.0,0.0,0.0,4.0,1.0,1.0
1715744726,120.0,0.0,0.12,0.0,0.0,0.0,0.0,0.0,2484.4475098,2484.4475098,0.0,0.0,0.0,0.555,199800.0,0.0,-6.0,-177.6999969,-0.8,944.6665039,0.0,21.6000004,40.9748726,0.0,0.0,0.0,0.0,0.0,0.0,0.0,0.0,0.0,0.0,0.0,0.0,0.0,0.0,0.0,0.0,0.0,0.0,0.0,0.0,4.0,1.0,1.0
1715744727,120.0,0.0,0.12,0.0,0.0,0.0,0.0,0.0,2485.0007324,2485.0007324,0.0,0.0,0.0,0.555,199800.0,0.0,-5.8000002,-177.8000031,-0.7,944.3618164,0.0,21.6000004,40.9862556,0.0,0.0,0.0,0.0,0.0,0.0,0.0,0.0,0.0,0.0,0.0,0.0,0.0,0.0,0.0,0.0,0.0,0.0,0.0,0.0,4.0,1.0,1.0
1715744728,120.0,0.0,0.12,0.0,0.0,0.0,0.0,0.0,2485.5541992,2485.5541992,0.0,0.0,0.0,0.555,199800.0,0.0,-5.9000001,-177.8000031,-0.9,944.1442871,0.0,21.6000004,40.9634895,0.0,0.0,0.0,0.0,0.0,0.0,0.0,0.0,0.0,0.0,0.0,0.0,0.0,0.0,0.0,0.0,0.0,0.0,0.0,0.0,4.0,1.0,1.0
1715744729,120.0,0.0,0.12,0.0,0.0,0.0,0.0,0.0,2486.107666,2486.107666,0.0,0.0,0.0,0.555,199800.0,0.0,-5.9000001,-177.6999969,-0.8,943.1105957,0.0,21.6000004,40.9521103,0.0,0.0,0.0,0.0,0.0,0.0,0.0,0.0,0.0,0.0,0.0,0.0,0.0,0.0,0.0,0.0,0.0,0.0,0.0,0.0,4.0,1.0,1.0
1715744730,120.0,0.0,0.12,0.0,0.0,0.0,0.0,0.0,2486.6608887,2486.6608887,0.0,0.0,0.0,0.555,199800.0,0.0,-6.0999999,-177.8000031,-0.9,940.8691406,0.0,21.6000004,40.9521103,0.0,0.0,0.0,0.0,0.0,0.0,0.0,0.0,0.0,0.0,0.0,0.0,0.0,0.0,0.0,0.0,0.0,0.0,0.0,0.0,4.0,1.0,1.0
1715744731,120.0,0.0,0.12,0.0,0.0,0.0,0.0,0.0,2487.2087402,2487.2087402,0.0,0.0,0.0,0.555,199800.0,0.0,-6.0,-178.0,-1.0,940.7058105,0.0,21.6000004,40.9634895,0.0,0.0,0.0,0.0,0.0,0.0,0.0,0.0,0.0,0.0,0.0,0.0,0.0,0.0,0.0,0.0,0.0,0.0,0.0,0.0,4.0,1.0,1.0
1715744732,120.0,0.0,0.12,0.0,0.0,0.0,0.0,0.0,2487.762207,2487.762207,0.0,0.0,0.0,0.555,199800.0,0.0,-6.0,-177.6999969,-0.9,938.5507813,0.0,21.6000004,40.9634895,0.0,0.0,0.0,0.0,0.0,0.0,0.0,0.0,0.0,0.0,0.0,0.0,0.0,0.0,0.0,0.0,0.0,0.0,0.0,0.0,4.0,1.0,1.0
1715744733,120.0,0.0,0.12,0.0,0.0,0.0,0.0,0.0,2488.3154297,2488.3154297,0.0,0.0,0.0,0.555,199800.0,0.0,-6.0,-177.8000031,-1.0,938.3112793,0.0,21.6000004,40.9862556,0.0,0.0,0.0,0.0,0.0,0.0,0.0,0.0,0.0,0.0,0.0,0.0,0.0,0.0,0.0,0.0,0.0,0.0,0.0,0.0,4.0,1.0,1.0
1715744734,120.0,0.0,0.12,0.0,0.0,0.0,0.0,0.0,2488.8686523,2488.8686523,0.0,0.0,0.0,0.555,199800.0,0.0,-5.6999998,-177.8999939,-1.0,937.9956055,0.0,21.6000004,40.9634895,0.0,0.0,0.0,0.0,0.0,0.0,0.0,0.0,0.0,0.0,0.0,0.0,0.0,0.0,0.0,0.0,0.0,0.0,0.0,0.0,4.0,1.0,1.0
1715744735,120.0,0.0,0.12,0.0,0.0,0.0,0.0,0.0,2489.421875,2489.421875,0.0,0.0,0.0,0.555,199800.0,0.0,-5.9000001,-177.6999969,-0.9,937.8430176,0.0,21.6000004,40.9521103,0.0,0.0,0.0,0.0,0.0,0.0,0.0,0.0,0.0,0.0,0.0,0.0,0.0,0.0,0.0,0.0,0.0,0.0,0.0,0.0,4.0,1.0,1.0
1715744736,120.0,0.0,0.12,0.0,0.0,0.0,0.0,0.0,2489.9753418,2489.9753418,0.0,0.0,0.0,0.555,199800.0,0.0,-5.9000001,-177.6999969,-0.9,937.5927734,0.0,21.6000004,40.9521103,0.0,0.0,0.0,0.0,0.0,0.0,0.0,0.0,0.0,0.0,0.0,0.0,0.0,0.0,0.0,0.0,0.0,0.0,0.0,0.0,4.0,1.0,1.0
1715744737,120.0,0.0,0.12,0.0,0.0,0.0,0.0,0.0,2490.5285645,2490.5285645,0.0,0.0,0.0,0.555,199800.0,0.0,-5.8000002,-177.6999969,-0.8,937.5927734,0.0,21.6000004,40.9634895,0.0,0.0,0.0,0.0,0.0,0.0,0.0,0.0,0.0,0.0,0.0,0.0,0.0,0.0,0.0,0.0,0.0,0.0,0.0,0.0,4.0,1.0,1.0
1715744738,120.0,0.0,0.12,0.0,0.0,0.0,0.0,0.0,2491.0817871,2491.0817871,0.0,0.0,0.0,0.555,199800.0,0.0,-5.8000002,-177.6000061,-0.8,937.0266113,0.0,21.6000004,40.9634895,0.0,0.0,0.0,0.0,0.0,0.0,0.0,0.0,0.0,0.0,0.0,0.0,0.0,0.0,0.0,0.0,0.0,0.0,0.0,0.0,4.0,1.0,1.0
1715744739,120.0,0.0,0.12,0.0,0.0,0.0,0.0,0.0,2491.6350098,2491.6350098,0.0,0.0,0.0,0.555,199800.0,0.0,-5.9000001,-177.6999969,-0.8,936.7436523,0.0,21.6000004,40.9862556,0.0,0.0,0.0,0.0,0.0,0.0,0.0,0.0,0.0,0.0,0.0,0.0,0.0,0.0,0.0,0.0,0.0,0.0,0.0,0.0,4.0,1.0,1.0
1715744740,120.0,0.0,0.12,0.0,0.0,0.0,0.0,0.0,2492.1882324,2492.1882324,0.0,0.0,0.0,0.555,199800.0,0.0,-5.9000001,-177.6999969,-0.8,936.6564941,0.0,21.6000004,40.9634895,0.0,0.0,0.0,0.0,0.0,0.0,0.0,0.0,0.0,0.0,0.0,0.0,0.0,0.0,0.0,0.0,0.0,0.0,0.0,0.0,4.0,1.0,1.0
1715744741,120.0,0.0,0.12,0.0,0.0,0.0,0.0,0.0,2492.7416992,2492.7416992,0.0,0.0,0.0,0.555,199800.0,0.0,-5.9000001,-177.6000061,-0.8,936.6020508,0.0,21.6000004,40.9634895,0.0,0.0,0.0,0.0,0.0,0.0,0.0,0.0,0.0,0.0,0.0,0.0,0.0,0.0,0.0,0.0,0.0,0.0,0.0,0.0,4.0,1.0,1.0
1715744742,120.0,0.0,0.12,0.0,0.0,0.0,0.0,0.0,2493.2946777,2493.2946777,0.0,0.0,0.0,0.555,199800.0,0.0,-5.9000001,-177.6000061,-0.8,934.6860352,0.0,21.6000004,40.9634895,0.0,0.0,0.0,0.0,0.0,0.0,0.0,0.0,0.0,0.0,0.0,0.0,0.0,0.0,0.0,0.0,0.0,0.0,0.0,0.0,4.0,1.0,1.0
1715744743,120.0,0.0,0.12,0.0,0.0,0.0,0.0,0.0,2493.8479004,2493.8479004,0.0,0.0,0.0,0.555,199800.0,0.0,-5.9000001,-177.8000031,-0.8,933.6296387,0.0,21.6000004,40.9634895,0.0,0.0,0.0,0.0,0.0,0.0,0.0,0.0,0.0,0.0,0.0,0.0,0.0,0.0,0.0,0.0,0.0,0.0,0.0,0.0,4.0,1.0,1.0
1715744744,120.0,0.0,0.12,0.0,0.0,0.0,0.0,0.0,2494.4013672,2494.4013672,0.0,0.0,0.0,0.555,199800.0,0.0,-5.9000001,-177.8000031,-0.9,932.1594238,0.0,21.6000004,40.9634895,0.0,0.0,0.0,0.0,0.0,0.0,0.0,0.0,0.0,0.0,0.0,0.0,0.0,0.0,0.0,0.0,0.0,0.0,0.0,0.0,4.0,1.0,1.0
1715744745,120.0,0.0,0.12,0.0,0.0,0.0,0.0,0.0,2494.9543457,2494.9543457,0.0,0.0,0.0,0.555,199800.0,0.0,-5.9000001,-177.6999969,-1.0,931.6801758,0.0,21.6000004,40.9634895,0.0,0.0,0.0,0.0,0.0,0.0,0.0,0.0,0.0,0.0,0.0,0.0,0.0,0.0,0.0,0.0,0.0,0.0,0.0,0.0,4.0,1.0,1.0
1715744746,120.0,0.0,0.12,0.0,0.0,0.0,0.0,0.0,2495.5073242,2495.5073242,0.0,0.0,0.0,0.555,199800.0,0.0,-5.9000001,-177.6999969,-0.9,930.8522949,0.0,21.5,40.9748726,0.0,0.0,0.0,0.0,0.0,0.0,0.0,0.0,0.0,0.0,0.0,0.0,0.0,0.0,0.0,0.0,0.0,0.0,0.0,0.0,4.0,1.0,1.0
1715744747,120.0,0.0,0.12,0.0,0.0,0.0,0.0,0.0,2496.0610352,2496.0610352,0.0,0.0,0.0,0.555,199800.0,0.0,-5.9000001,-177.6999969,-0.9,930.2424316,0.0,21.6000004,40.9634895,0.0,0.0,0.0,0.0,0.0,0.0,0.0,0.0,0.0,0.0,0.0,0.0,0.0,0.0,0.0,0.0,0.0,0.0,0.0,0.0,4.0,1.0,1.0
1715744748,120.0,0.0,0.12,0.0,0.0,0.0,0.0,0.0,2496.6140137,2496.6140137,0.0,0.0,0.0,0.555,199800.0,0.0,-6.0,-177.8000031,-0.9,930.1335449,0.0,21.6000004,40.9634895,0.0,0.0,0.0,0.0,0.0,0.0,0.0,0.0,0.0,0.0,0.0,0.0,0.0,0.0,0.0,0.0,0.0,0.0,0.0,0.0,4.0,1.0,1.0
1715744749,120.0,0.0,0.12,0.0,0.0,0.0,0.0,0.0,2497.1672363,2497.1672363,0.0,0.0,0.0,0.555,199800.0,0.0,-5.9000001,-177.8000031,-0.9,930.0136719,0.0,21.6000004,40.9634895,0.0,0.0,0.0,0.0,0.0,0.0,0.0,0.0,0.0,0.0,0.0,0.0,0.0,0.0,0.0,0.0,0.0,0.0,0.0,0.0,4.0,1.0,1.0
1715744750,120.0,0.0,0.12,0.0,0.0,0.0,0.0,0.0,2497.7207031,2497.7207031,0.0,0.0,0.0,0.555,199800.0,0.0,-6.0,-177.6999969,-0.9,929.817627,0.0,21.6000004,40.9634895,0.0,0.0,0.0,0.0,0.0,0.0,0.0,0.0,0.0,0.0,0.0,0.0,0.0,0.0,0.0,0.0,0.0,0.0,0.0,0.0,4.0,1.0,1.0
1715744751,120.0,0.0,0.12,0.0,0.0,0.0,0.0,0.0,2498.2849121,2498.2849121,0.0,0.0,0.0,0.555,199800.0,0.0,-5.9000001,-177.6999969,-0.8,928.8044434,0.0,21.6000004,40.9634895,0.0,0.0,0.0,0.0,0.0,0.0,0.0,0.0,0.0,0.0,0.0,0.0,0.0,0.0,0.0,0.0,0.0,0.0,0.0,0.0,4.0,1.0,1.0
1715744752,120.0,0.0,0.12,0.0,0.0,0.0,0.0,0.0,2498.8325195,2498.8325195,0.0,0.0,0.0,0.555,199800.0,0.0,-6.0,-177.8000031,-0.8,928.7935791,0.0,21.6000004,40.9748726,0.0,0.0,0.0,0.0,0.0,0.0,0.0,0.0,0.0,0.0,0.0,0.0,0.0,0.0,0.0,0.0,0.0,0.0,0.0,0.0,4.0,1.0,1.0
1715744753,120.0,0.0,0.12,0.0,0.0,0.0,0.0,0.0,2499.3857422,2499.3857422,0.0,0.0,0.0,0.555,199800.0,0.0,-5.8000002,-177.6000061,-0.8,928.6845703,0.0,21.6000004,40.9748726,0.0,0.0,0.0,0.0,0.0,0.0,0.0,0.0,0.0,0.0,0.0,0.0,0.0,0.0,0.0,0.0,0.0,0.0,0.0,0.0,4.0,1.0,1.0
1715744754,120.0,0.0,0.12,0.0,0.0,0.0,0.0,0.0,2499.9389648,2499.9389648,0.0,0.0,0.0,0.555,199800.0,0.0,-5.9000001,-177.6999969,-0.8,927.2572021,0.0,21.6000004,40.9634895,0.0,0.0,0.0,0.0,0.0,0.0,0.0,0.0,0.0,0.0,0.0,0.0,0.0,0.0,0.0,0.0,0.0,0.0,0.0,0.0,4.0,1.0,1.0
1715744755,120.0,0.0,0.12,0.0,0.0,0.0,0.0,0.0,2500.4924316,2500.4924316,0.0,0.0,0.0,0.555,199800.0,0.0,-5.9000001,-177.6000061,-0.8,926.385498,0.0,21.6000004,40.9634895,0.0,0.0,0.0,0.0,0.0,0.0,0.0,0.0,0.0,0.0,0.0,0.0,0.0,0.0,0.0,0.0,0.0,0.0,0.0,0.0,4.0,1.0,1.0
1715744756,120.0,0.0,0.12,0.0,0.0,0.0,0.0,0.0,2501.0454102,2501.0454102,0.0,0.0,0.0,0.555,199800.0,0.0,-6.0,-177.8000031,-0.9,925.2741699,0.0,21.6000004,40.9634895,0.0,0.0,0.0,0.0,0.0,0.0,0.0,0.0,0.0,0.0,0.0,0.0,0.0,0.0,0.0,0.0,0.0,0.0,0.0,0.0,4.0,1.0,1.0
1715744757,120.0,0.0,0.12,0.0,0.0,0.0,0.0,0.0,2501.598877,2501.598877,0.0,0.0,0.0,0.555,199800.0,0.0,-5.9000001,-177.6999969,-0.8,924.9362793,0.0,21.6000004,40.9748726,0.0,0.0,0.0,0.0,0.0,0.0,0.0,0.0,0.0,0.0,0.0,0.0,0.0,0.0,0.0,0.0,0.0,0.0,0.0,0.0,4.0,1.0,1.0
1715744758,120.0,0.0,0.12,0.0,0.0,0.0,0.0,0.0,2502.1520996,2502.1520996,0.0,0.0,0.0,0.555,199800.0,0.0,-6.0,-177.6999969,-0.8,923.4539795,0.0,21.6000004,40.9748726,0.0,0.0,0.0,0.0,0.0,0.0,0.0,0.0,0.0,0.0,0.0,0.0,0.0,0.0,0.0,0.0,0.0,0.0,0.0,0.0,4.0,1.0,1.0
1715744759,120.0,0.0,0.12,0.0,0.0,0.0,0.0,0.0,2502.699707,2502.699707,0.0,0.0,0.0,0.555,199800.0,0.0,-6.0,-177.8999939,-0.9,922.9526367,0.0,21.6000004,40.9976387,0.0,0.0,0.0,0.0,0.0,0.0,0.0,0.0,0.0,0.0,0.0,0.0,0.0,0.0,0.0,0.0,0.0,0.0,0.0,0.0,4.0,1.0,1.0
1715744760,120.0,0.0,0.12,0.0,0.0,0.0,0.0,0.0,2503.2531738,2503.2531738,0.0,0.0,0.0,0.555,199800.0,0.0,-6.0,-177.8999939,-0.9,922.4075928,0.0,21.6000004,40.9748726,0.0,0.0,0.0,0.0,0.0,0.0,0.0,0.0,0.0,0.0,0.0,0.0,0.0,0.0,0.0,0.0,0.0,0.0,0.0,0.0,4.0,1.0,1.0
1715744761,120.0,0.0,0.12,0.0,0.0,0.0,0.0,0.0,2503.8061523,2503.8061523,0.0,0.0,0.0,0.555,199800.0,0.0,-5.9000001,-177.6999969,-0.9,922.2331543,0.0,21.6000004,40.9634895,0.0,0.0,0.0,0.0,0.0,0.0,0.0,0.0,0.0,0.0,0.0,0.0,0.0,0.0,0.0,0.0,0.0,0.0,0.0,0.0,4.0,1.0,1.0
1715744762,120.0,0.0,0.12,0.0,0.0,0.0,0.0,0.0,2504.3596191,2504.3596191,0.0,0.0,0.0,0.555,199800.0,0.0,-5.9000001,-177.6999969,-0.8,922.1568604,0.0,21.6000004,40.9634895,0.0,0.0,0.0,0.0,0.0,0.0,0.0,0.0,0.0,0.0,0.0,0.0,0.0,0.0,0.0,0.0,0.0,0.0,0.0,0.0,4.0,1.0,1.0
1715744763,120.0,0.0,0.12,0.0,0.0,0.0,0.0,0.0,2504.9128418,2504.9128418,0.0,0.0,0.0,0.555,199800.0,0.0,-5.9000001,-177.6999969,-0.9,921.9606934,0.0,21.6000004,40.9748726,0.0,0.0,0.0,0.0,0.0,0.0,0.0,0.0,0.0,0.0,0.0,0.0,0.0,0.0,0.0,0.0,0.0,0.0,0.0,0.0,4.0,1.0,1.0
1715744764,120.0,0.0,0.12,0.0,0.0,0.0,0.0,0.0,2505.4658203,2505.4658203,0.0,0.0,0.0,0.555,199800.0,0.0,-5.9000001,-177.6999969,-0.9,921.5028076,0.0,21.6000004,40.9748726,0.0,0.0,0.0,0.0,0.0,0.0,0.0,0.0,0.0,0.0,0.0,0.0,0.0,0.0,0.0,0.0,0.0,0.0,0.0,0.0,4.0,1.0,1.0
1715744765,120.0,0.0,0.12,0.0,0.0,0.0,0.0,0.0,2506.0131836,2506.0131836,0.0,0.0,0.0,0.555,199800.0,0.0,-6.0,-177.6999969,-0.8,921.0557861,0.0,21.6000004,40.9976387,0.0,0.0,0.0,0.0,0.0,0.0,0.0,0.0,0.0,0.0,0.0,0.0,0.0,0.0,0.0,0.0,0.0,0.0,0.0,0.0,4.0,1.0,1.0
1715744766,120.0,0.0,0.12,0.0,0.0,0.0,0.0,0.0,2506.5666504,2506.5666504,0.0,0.0,0.0,0.555,199800.0,0.0,-5.9000001,-177.8000031,-0.8,920.6741943,0.0,21.6000004,40.9748726,0.0,0.0,0.0,0.0,0.0,0.0,0.0,0.0,0.0,0.0,0.0,0.0,0.0,0.0,0.0,0.0,0.0,0.0,0.0,0.0,4.0,1.0,1.0
1715744767,120.0,0.0,0.12,0.0,0.0,0.0,0.0,0.0,2507.1196289,2507.1196289,0.0,0.0,0.0,0.555,199800.0,0.0,-5.5,-177.6000061,-0.9,920.3364258,0.0,21.6000004,40.9748726,0.0,0.0,0.0,0.0,0.0,0.0,0.0,0.0,0.0,0.0,0.0,0.0,0.0,0.0,0.0,0.0,0.0,0.0,0.0,0.0,4.0,1.0,1.0
1715744768,120.0,0.0,0.12,0.0,0.0,0.0,0.0,0.0,2507.6730957,2507.6730957,0.0,0.0,0.0,0.555,199800.0,0.0,-6.0,-177.6999969,-0.9,916.9342041,0.0,21.6000004,40.9634895,0.0,0.0,0.0,0.0,0.0,0.0,0.0,0.0,0.0,0.0,0.0,0.0,0.0,0.0,0.0,0.0,0.0,0.0,0.0,0.0,4.0,1.0,1.0
1715744769,120.0,0.0,0.12,0.0,0.0,0.0,0.0,0.0,2508.2263184,2508.2263184,0.0,0.0,0.0,0.555,199800.0,0.0,-5.9000001,-177.6999969,-0.8,916.5089111,0.0,21.6000004,40.9748726,0.0,0.0,0.0,0.0,0.0,0.0,0.0,0.0,0.0,0.0,0.0,0.0,0.0,0.0,0.0,0.0,0.0,0.0,0.0,0.0,4.0,1.0,1.0
1715744770,120.0,0.0,0.12,0.0,0.0,0.0,0.0,0.0,2508.7797852,2508.7797852,0.0,0.0,0.0,0.555,199800.0,0.0,-5.8000002,-177.6999969,-0.9,915.5599365,0.0,21.6000004,40.9862556,0.0,0.0,0.0,0.0,0.0,0.0,0.0,0.0,0.0,0.0,0.0,0.0,0.0,0.0,0.0,0.0,0.0,0.0,0.0,0.0,4.0,1.0,1.0
1715744771,120.0,0.0,0.12,0.0,0.0,0.0,0.0,0.0,2509.3330078,2509.3330078,0.0,0.0,0.0,0.555,199800.0,0.0,-5.8000002,-177.8000031,-0.9,914.5457764,0.0,21.6000004,40.9976387,0.0,0.0,0.0,0.0,0.0,0.0,0.0,0.0,0.0,0.0,0.0,0.0,0.0,0.0,0.0,0.0,0.0,0.0,0.0,0.0,4.0,1.0,1.0
1715744772,120.0,0.0,0.12,0.0,0.0,0.0,0.0,0.0,2509.8862305,2509.8862305,0.0,0.0,0.0,0.555,199800.0,0.0,-5.9000001,-177.6000061,-0.9,914.1530762,0.0,21.6000004,40.9862556,0.0,0.0,0.0,0.0,0.0,0.0,0.0,0.0,0.0,0.0,0.0,0.0,0.0,0.0,0.0,0.0,0.0,0.0,0.0,0.0,4.0,1.0,1.0
1715744773,120.0,0.0,0.12,0.0,0.0,0.0,0.0,0.0,2510.4396973,2510.4396973,0.0,0.0,0.0,0.555,199800.0,0.0,-5.8000002,-177.6000061,-0.9,913.9130859,0.0,21.6000004,40.9862556,0.0,0.0,0.0,0.0,0.0,0.0,0.0,0.0,0.0,0.0,0.0,0.0,0.0,0.0,0.0,0.0,0.0,0.0,0.0,0.0,4.0,1.0,1.0
1715744774,120.0,0.0,0.12,0.0,0.0,0.0,0.0,0.0,2510.9926758,2510.9926758,0.0,0.0,0.0,0.555,199800.0,0.0,-5.8000002,-177.6000061,-0.9,913.5639648,0.0,21.6000004,40.9748726,0.0,0.0,0.0,0.0,0.0,0.0,0.0,0.0,0.0,0.0,0.0,0.0,0.0,0.0,0.0,0.0,0.0,0.0,0.0,0.0,4.0,1.0,1.0
1715744775,120.0,0.0,0.12,0.0,0.0,0.0,0.0,0.0,2511.5458984,2511.5458984,0.0,0.0,0.0,0.555,199800.0,0.0,-6.0,-177.8000031,-0.9,913.5093994,0.0,21.6000004,40.9748726,0.0,0.0,0.0,0.0,0.0,0.0,0.0,0.0,0.0,0.0,0.0,0.0,0.0,0.0,0.0,0.0,0.0,0.0,0.0,0.0,4.0,1.0,1.0
1715744776,120.0,0.0,0.12,0.0,0.0,0.0,0.0,0.0,2512.0993652,2512.0993652,0.0,0.0,0.0,0.555,199800.0,0.0,-5.9000001,-177.8000031,-0.9,913.3348389,0.0,21.6000004,40.9862556,0.0,0.0,0.0,0.0,0.0,0.0,0.0,0.0,0.0,0.0,0.0,0.0,0.0,0.0,0.0,0.0,0.0,0.0,0.0,0.0,4.0,1.0,1.0
1715744777,120.0,0.0,0.12,0.0,0.0,0.0,0.0,0.0,2512.6523437,2512.6523437,0.0,0.0,0.0,0.555,199800.0,0.0,-5.9000001,-177.6999969,-0.8,913.0512695,0.0,21.6000004,40.9862556,0.0,0.0,0.0,0.0,0.0,0.0,0.0,0.0,0.0,0.0,0.0,0.0,0.0,0.0,0.0,0.0,0.0,0.0,0.0,0.0,4.0,1.0,1.0
1715744778,120.0,0.0,0.12,0.0,0.0,0.0,0.0,0.0,2513.2055664,2513.2055664,0.0,0.0,0.0,0.555,199800.0,0.0,-5.8000002,-177.8999939,-0.8,912.8875732,0.0,21.6000004,41.0090179,0.0,0.0,0.0,0.0,0.0,0.0,0.0,0.0,0.0,0.0,0.0,0.0,0.0,0.0,0.0,0.0,0.0,0.0,0.0,0.0,4.0,1.0,1.0
1715744779,120.0,0.0,0.12,0.0,0.0,0.0,0.0,0.0,2513.7587891,2513.7587891,0.0,0.0,0.0,0.555,199800.0,0.0,-5.9000001,-177.6999969,-0.9,912.4511719,0.0,21.6000004,40.9862556,0.0,0.0,0.0,0.0,0.0,0.0,0.0,0.0,0.0,0.0,0.0,0.0,0.0,0.0,0.0,0.0,0.0,0.0,0.0,0.0,4.0,1.0,1.0
1715744780,120.0,0.0,0.12,0.0,0.0,0.0,0.0,0.0,2514.3122559,2514.3122559,0.0,0.0,0.0,0.555,199800.0,0.0,-5.9000001,-177.8000031,-0.8,911.1199951,0.0,21.6000004,40.9862556,0.0,0.0,0.0,0.0,0.0,0.0,0.0,0.0,0.0,0.0,0.0,0.0,0.0,0.0,0.0,0.0,0.0,0.0,0.0,0.0,4.0,1.0,1.0
1715744781,120.0,0.0,0.12,0.0,0.0,0.0,0.0,0.0,2514.8657227,2514.8657227,0.0,0.0,0.0,0.555,199800.0,0.0,-5.9000001,-177.8999939,-0.8,909.1014404,0.0,21.6000004,40.9862556,0.0,0.0,0.0,0.0,0.0,0.0,0.0,0.0,0.0,0.0,0.0,0.0,0.0,0.0,0.0,0.0,0.0,0.0,0.0,0.0,4.0,1.0,1.0
1715744782,120.0,0.0,0.12,0.0,0.0,0.0,0.0,0.0,2515.4194336,2515.4194336,0.0,0.0,0.0,0.555,199800.0,0.0,-5.9000001,-177.8000031,-0.9,908.7849121,0.0,21.6000004,40.9862556,0.0,0.0,0.0,0.0,0.0,0.0,0.0,0.0,0.0,0.0,0.0,0.0,0.0,0.0,0.0,0.0,0.0,0.0,0.0,0.0,4.0,1.0,1.0
1715744783,120.0,0.0,0.12,0.0,0.0,0.0,0.0,0.0,2515.9726562,2515.9726562,0.0,0.0,0.0,0.555,199800.0,0.0,-5.8000002,-177.8999939,-0.9,907.6826172,0.0,21.6000004,40.9862556,0.0,0.0,0.0,0.0,0.0,0.0,0.0,0.0,0.0,0.0,0.0,0.0,0.0,0.0,0.0,0.0,0.0,0.0,0.0,0.0,4.0,1.0,1.0
1715744784,120.0,0.0,0.12,0.0,0.0,0.0,0.0,0.0,2516.5200195,2516.5200195,0.0,0.0,0.0,0.555,199800.0,0.0,-5.9000001,-177.6999969,-0.9,907.0604248,0.0,21.6000004,41.0090179,0.0,0.0,0.0,0.0,0.0,0.0,0.0,0.0,0.0,0.0,0.0,0.0,0.0,0.0,0.0,0.0,0.0,0.0,0.0,0.0,4.0,1.0,1.0
1715744785,120.0,0.0,0.12,0.0,0.0,0.0,0.0,0.0,2517.0737305,2517.0737305,0.0,0.0,0.0,0.555,199800.0,0.0,-5.8000002,-177.8000031,-0.8,907.0058594,0.0,21.6000004,40.9862556,0.0,0.0,0.0,0.0,0.0,0.0,0.0,0.0,0.0,0.0,0.0,0.0,0.0,0.0,0.0,0.0,0.0,0.0,0.0,0.0,4.0,1.0,1.0
1715744786,120.0,0.0,0.12,0.0,0.0,0.0,0.0,0.0,2517.6271973,2517.6271973,0.0,0.0,0.0,0.555,199800.0,0.0,-5.9000001,-177.6999969,-0.9,906.8638916,0.0,21.6000004,40.9862556,0.0,0.0,0.0,0.0,0.0,0.0,0.0,0.0,0.0,0.0,0.0,0.0,0.0,0.0,0.0,0.0,0.0,0.0,0.0,0.0,4.0,1.0,1.0
1715744787,120.0,0.0,0.12,0.0,0.0,0.0,0.0,0.0,2518.1801758,2518.1801758,0.0,0.0,0.0,0.555,199800.0,0.0,-5.9000001,-177.8000031,-0.9,905.9906006,0.0,21.6000004,40.9634895,0.0,0.0,0.0,0.0,0.0,0.0,0.0,0.0,0.0,0.0,0.0,0.0,0.0,0.0,0.0,0.0,0.0,0.0,0.0,0.0,4.0,1.0,1.0
1715744788,120.0,0.0,0.12,0.0,0.0,0.0,0.0,0.0,2518.7333984,2518.7333984,0.0,0.0,0.0,0.555,199800.0,0.0,-5.9000001,-177.6000061,-0.8,905.9578857,0.0,21.6000004,40.9748726,0.0,0.0,0.0,0.0,0.0,0.0,0.0,0.0,0.0,0.0,0.0,0.0,0.0,0.0,0.0,0.0,0.0,0.0,0.0,0.0,4.0,1.0,1.0
1715744789,120.0,0.0,0.12,0.0,0.0,0.0,0.0,0.0,2519.2868652,2519.2868652,0.0,0.0,0.0,0.555,199800.0,0.0,-5.9000001,-177.6999969,-0.9,905.9578857,0.0,21.6000004,40.9862556,0.0,0.0,0.0,0.0,0.0,0.0,0.0,0.0,0.0,0.0,0.0,0.0,0.0,0.0,0.0,0.0,0.0,0.0,0.0,0.0,4.0,1.0,1.0
1715744790,120.0,0.0,0.12,0.0,0.0,0.0,0.0,0.0,2519.8400879,2519.8400879,0.0,0.0,0.0,0.555,199800.0,0.0,-6.0,-177.6999969,-0.8,905.6849365,0.0,21.6000004,41.0090179,0.0,0.0,0.0,0.0,0.0,0.0,0.0,0.0,0.0,0.0,0.0,0.0,0.0,0.0,0.0,0.0,0.0,0.0,0.0,0.0,4.0,1.0,1.0
1715744791,120.0,0.0,0.12,0.0,0.0,0.0,0.0,0.0,2520.3933105,2520.3933105,0.0,0.0,0.0,0.555,199800.0,0.0,-5.9000001,-177.6999969,-0.8,905.0844727,0.0,21.6000004,41.0090179,0.0,0.0,0.0,0.0,0.0,0.0,0.0,0.0,0.0,0.0,0.0,0.0,0.0,0.0,0.0,0.0,0.0,0.0,0.0,0.0,4.0,1.0,1.0
1715744792,120.0,0.0,0.12,0.0,0.0,0.0,0.0,0.0,2520.9465332,2520.9465332,0.0,0.0,0.0,0.555,199800.0,0.0,-6.0,-177.8000031,-0.8,904.6043701,0.0,21.6000004,40.9862556,0.0,0.0,0.0,0.0,0.0,0.0,0.0,0.0,0.0,0.0,0.0,0.0,0.0,0.0,0.0,0.0,0.0,0.0,0.0,0.0,4.0,1.0,1.0
1715744793,120.0,0.0,0.12,0.0,0.0,0.0,0.0,0.0,2521.4997559,2521.4997559,0.0,0.0,0.0,0.555,199800.0,0.0,-5.9000001,-177.6999969,-0.8,902.223999,0.0,21.6000004,40.9748726,0.0,0.0,0.0,0.0,0.0,0.0,0.0,0.0,0.0,0.0,0.0,0.0,0.0,0.0,0.0,0.0,0.0,0.0,0.0,0.0,4.0,1.0,1.0
1715744794,120.0,0.0,0.12,0.0,0.0,0.0,0.0,0.0,2522.0532227,2522.0532227,0.0,0.0,0.0,0.555,199800.0,0.0,-6.0,-177.8000031,-0.8,901.8527832,0.0,21.6000004,40.9748726,0.0,0.0,0.0,0.0,0.0,0.0,0.0,0.0,0.0,0.0,0.0,0.0,0.0,0.0,0.0,0.0,0.0,0.0,0.0,0.0,4.0,1.0,1.0
1715744795,120.0,0.0,0.12,0.0,0.0,0.0,0.0,0.0,2522.6066895,2522.6066895,0.0,0.0,0.0,0.555,199800.0,0.0,-5.8000002,-177.8000031,-0.9,901.131958,0.0,21.6000004,40.9862556,0.0,0.0,0.0,0.0,0.0,0.0,0.0,0.0,0.0,0.0,0.0,0.0,0.0,0.0,0.0,0.0,0.0,0.0,0.0,0.0,4.0,1.0,1.0
1715744796,120.0,0.0,0.12,0.0,0.0,0.0,0.0,0.0,2523.1599121,2523.1599121,0.0,0.0,0.0,0.555,199800.0,0.0,-6.0,-177.8999939,-0.9,900.7169189,0.0,21.6000004,40.9976387,0.0,0.0,0.0,0.0,0.0,0.0,0.0,0.0,0.0,0.0,0.0,0.0,0.0,0.0,0.0,0.0,0.0,0.0,0.0,0.0,4.0,0.0,1.0
1715744797,120.0,0.0,0.12,0.0,0.0,0.0,0.0,0.0,2523.7131348,2523.7131348,0.0,0.0,0.0,0.555,199800.0,0.0,-6.0,-177.6999969,-0.9,899.7558594,0.0,21.6000004,41.0090179,0.0,0.0,0.0,0.0,0.0,0.0,0.0,0.0,0.0,0.0,0.0,0.0,0.0,0.0,0.0,0.0,0.0,0.0,0.0,0.0,4.0,1.0,1.0
1715744798,120.0,0.0,0.12,0.0,0.0,0.0,0.0,0.0,2524.2663574,2524.2663574,0.0,0.0,0.0,0.555,199800.0,0.0,-5.9000001,-177.8000031,-0.9,899.2645264,0.0,21.6000004,40.9976387,0.0,0.0,0.0,0.0,0.0,0.0,0.0,0.0,0.0,0.0,0.0,0.0,0.0,0.0,0.0,0.0,0.0,0.0,0.0,0.0,4.0,1.0,1.0
1715744799,120.0,0.0,0.12,0.0,0.0,0.0,0.0,0.0,2524.8198242,2524.8198242,0.0,0.0,0.0,0.555,199800.0,0.0,-6.0999999,-177.6999969,-0.9,899.0241699,0.0,21.6000004,40.9748726,0.0,0.0,0.0,0.0,0.0,0.0,0.0,0.0,0.0,0.0,0.0,0.0,0.0,0.0,0.0,0.0,0.0,0.0,0.0,0.0,4.0,1.0,1.0
1715744800,120.0,0.0,0.12,0.0,0.0,0.0,0.0,0.0,2525.3728027,2525.3728027,0.0,0.0,0.0,0.555,199800.0,0.0,-6.0,-177.6999969,-0.9,898.9259033,0.0,21.6000004,40.9748726,0.0,0.0,0.0,0.0,0.0,0.0,0.0,0.0,0.0,0.0,0.0,0.0,0.0,0.0,0.0,0.0,0.0,0.0,0.0,0.0,4.0,1.0,1.0
1715744801,120.0,0.0,0.12,0.0,0.0,0.0,0.0,0.0,2525.9257812,2525.9257812,0.0,0.0,0.0,0.555,199800.0,0.0,-5.9000001,-177.6999969,-0.9,898.6091309,0.0,21.6000004,40.9748726,0.0,0.0,0.0,0.0,0.0,0.0,0.0,0.0,0.0,0.0,0.0,0.0,0.0,0.0,0.0,0.0,0.0,0.0,0.0,0.0,4.0,1.0,1.0
1715744802,120.0,0.0,0.12,0.0,0.0,0.0,0.0,0.0,2526.4790039,2526.4790039,0.0,0.0,0.0,0.555,199800.0,0.0,-5.9000001,-177.8000031,-0.9,898.1394043,0.0,21.6000004,40.9976387,0.0,0.0,0.0,0.0,0.0,0.0,0.0,0.0,0.0,0.0,0.0,0.0,0.0,0.0,0.0,0.0,0.0,0.0,0.0,0.0,4.0,1.0,1.0
1715744803,120.0,0.0,0.12,0.0,0.0,0.0,0.0,0.0,2527.0319824,2527.0319824,0.0,0.0,0.0,0.555,199800.0,0.0,-5.9000001,-177.8999939,-0.8,898.0738525,0.0,21.6000004,41.0090179,0.0,0.0,0.0,0.0,0.0,0.0,0.0,0.0,0.0,0.0,0.0,0.0,0.0,0.0,0.0,0.0,0.0,0.0,0.0,0.0,4.0,1.0,1.0
1715744804,120.0,0.0,0.12,0.0,0.0,0.0,0.0,0.0,2527.5852051,2527.5852051,0.0,0.0,0.0,0.555,199800.0,0.0,-5.9000001,-177.6999969,-0.8,897.8116455,0.0,21.6000004,40.9976387,0.0,0.0,0.0,0.0,0.0,0.0,0.0,0.0,0.0,0.0,0.0,0.0,0.0,0.0,0.0,0.0,0.0,0.0,0.0,0.0,4.0,1.0,1.0
1715744805,120.0,0.0,0.12,0.0,0.0,0.0,0.0,0.0,2528.1328125,2528.1328125,0.0,0.0,0.0,0.555,199800.0,0.0,-5.9000001,-177.8000031,-0.8,897.7897949,0.0,21.6000004,40.9748726,0.0,0.0,0.0,0.0,0.0,0.0,0.0,0.0,0.0,0.0,0.0,0.0,0.0,0.0,0.0,0.0,0.0,0.0,0.0,0.0,4.0,1.0,1.0
1715744806,120.0,0.0,0.12,0.0,0.0,0.0,0.0,0.0,2528.6860352,2528.6860352,0.0,0.0,0.0,0.555,199800.0,0.0,-6.0,-177.6999969,-0.8,896.2821045,0.0,21.6000004,40.9748726,0.0,0.0,0.0,0.0,0.0,0.0,0.0,0.0,0.0,0.0,0.0,0.0,0.0,0.0,0.0,0.0,0.0,0.0,0.0,0.0,4.0,1.0,1.0
1715744807,120.0,0.0,0.12,0.0,0.0,0.0,0.0,0.0,2529.2392578,2529.2392578,0.0,0.0,0.0,0.555,199800.0,0.0,-5.9000001,-177.8000031,-0.8,895.2659912,0.0,21.6000004,40.9748726,0.0,0.0,0.0,0.0,0.0,0.0,0.0,0.0,0.0,0.0,0.0,0.0,0.0,0.0,0.0,0.0,0.0,0.0,0.0,0.0,4.0,1.0,1.0
1715744808,120.0,0.0,0.12,0.0,0.0,0.0,0.0,0.0,2529.7929687,2529.7929687,0.0,0.0,0.0,0.555,199800.0,0.0,-6.0,-177.6000061,-0.9,893.5943604,0.0,21.6000004,40.9748726,0.0,0.0,0.0,0.0,0.0,0.0,0.0,0.0,0.0,0.0,0.0,0.0,0.0,0.0,0.0,0.0,0.0,0.0,0.0,0.0,4.0,1.0,1.0
1715744809,120.0,0.0,0.12,0.0,0.0,0.0,0.0,0.0,2530.3459473,2530.3459473,0.0,0.0,0.0,0.555,199800.0,0.0,-5.8000002,-177.6999969,-0.8,893.2883301,0.0,21.6000004,40.9976387,0.0,0.0,0.0,0.0,0.0,0.0,0.0,0.0,0.0,0.0,0.0,0.0,0.0,0.0,0.0,0.0,0.0,0.0,0.0,0.0,4.0,1.0,1.0
1715744810,120.0,0.0,0.12,0.0,0.0,0.0,0.0,0.0,2530.8991699,2530.8991699,0.0,0.0,0.0,0.555,199800.0,0.0,-5.9000001,-177.6000061,-0.8,892.0970459,0.0,21.6000004,41.0090179,0.0,0.0,0.0,0.0,0.0,0.0,0.0,0.0,0.0,0.0,0.0,0.0,0.0,0.0,0.0,0.0,0.0,0.0,0.0,0.0,4.0,1.0,1.0
1715744811,120.0,0.0,0.12,0.0,0.0,0.0,0.0,0.0,2531.4523926,2531.4523926,0.0,0.0,0.0,0.555,199800.0,0.0,-6.0,-177.8000031,-0.8,892.0205078,0.0,21.6000004,40.9748726,0.0,0.0,0.0,0.0,0.0,0.0,0.0,0.0,0.0,0.0,0.0,0.0,0.0,0.0,0.0,0.0,0.0,0.0,0.0,0.0,4.0,1.0,1.0
1715744812,120.0,0.0,0.12,0.0,0.0,0.0,0.0,0.0,2532.0056152,2532.0056152,0.0,0.0,0.0,0.555,199800.0,0.0,-6.0,-177.6000061,-0.9,891.9440918,0.0,21.6000004,40.9748726,0.0,0.0,0.0,0.0,0.0,0.0,0.0,0.0,0.0,0.0,0.0,0.0,0.0,0.0,0.0,0.0,0.0,0.0,0.0,0.0,4.0,1.0,1.0
1715744813,120.0,0.0,0.12,0.0,0.0,0.0,0.0,0.0,2532.5588379,2532.5588379,0.0,0.0,0.0,0.555,199800.0,0.0,-6.0999999,-177.8000031,-0.8,891.6817627,0.0,21.6000004,40.9748726,0.0,0.0,0.0,0.0,0.0,0.0,0.0,0.0,0.0,0.0,0.0,0.0,0.0,0.0,0.0,0.0,0.0,0.0,0.0,0.0,4.0,1.0,1.0
1715744814,120.0,0.0,0.12,0.0,0.0,0.0,0.0,0.0,2533.1123047,2533.1123047,0.0,0.0,0.0,0.555,199800.0,0.0,-5.6999998,-177.8000031,-0.7,891.2445068,0.0,21.6000004,40.9748726,0.0,0.0,0.0,0.0,0.0,0.0,0.0,0.0,0.0,0.0,0.0,0.0,0.0,0.0,0.0,0.0,0.0,0.0,0.0,0.0,4.0,1.0,1.0
1715744815,120.0,0.0,0.12,0.0,0.0,0.0,0.0,0.0,2533.6655273,2533.6655273,0.0,0.0,0.0,0.555,199800.0,0.0,-5.9000001,-177.6999969,-0.8,891.1898193,0.0,21.6000004,40.9748726,0.0,0.0,0.0,0.0,0.0,0.0,0.0,0.0,0.0,0.0,0.0,0.0,0.0,0.0,0.0,0.0,0.0,0.0,0.0,0.0,4.0,1.0,1.0
1715744816,120.0,0.0,0.12,0.0,0.0,0.0,0.0,0.0,2534.2185059,2534.2185059,0.0,0.0,0.0,0.555,199800.0,0.0,-5.9000001,-177.6999969,-0.8,890.8947754,0.0,21.6000004,41.0090179,0.0,0.0,0.0,0.0,0.0,0.0,0.0,0.0,0.0,0.0,0.0,0.0,0.0,0.0,0.0,0.0,0.0,0.0,0.0,0.0,4.0,1.0,1.0
1715744817,120.0,0.0,0.12,0.0,0.0,0.0,0.0,0.0,2534.7719727,2534.7719727,0.0,0.0,0.0,0.555,199800.0,0.0,-5.8000002,-177.6999969,-0.8,890.3153076,0.0,21.6000004,40.9748726,0.0,0.0,0.0,0.0,0.0,0.0,0.0,0.0,0.0,0.0,0.0,0.0,0.0,0.0,0.0,0.0,0.0,0.0,0.0,0.0,4.0,1.0,1.0
1715744818,120.0,0.0,0.12,0.0,0.0,0.0,0.0,0.0,2535.3249512,2535.3249512,0.0,0.0,0.0,0.555,199800.0,0.0,-5.8000002,-177.8000031,-0.8,889.0911865,0.0,21.6000004,40.9748726,0.0,0.0,0.0,0.0,0.0,0.0,0.0,0.0,0.0,0.0,0.0,0.0,0.0,0.0,0.0,0.0,0.0,0.0,0.0,0.0,4.0,1.0,1.0
1715744819,120.0,0.0,0.12,0.0,0.0,0.0,0.0,0.0,2535.8781738,2535.8781738,0.0,0.0,0.0,0.555,199800.0,0.0,-6.0,-177.6999969,-0.8,887.8557129,0.0,21.6000004,40.9748726,0.0,0.0,0.0,0.0,0.0,0.0,0.0,0.0,0.0,0.0,0.0,0.0,0.0,0.0,0.0,0.0,0.0,0.0,0.0,0.0,4.0,1.0,1.0
1715744820,120.0,0.0,0.12,0.0,0.0,0.0,0.0,0.0,2536.4311523,2536.4311523,0.0,0.0,0.0,0.555,199800.0,0.0,-5.8000002,-177.8000031,-0.8,886.7404785,0.0,21.6000004,40.9748726,0.0,0.0,0.0,0.0,0.0,0.0,0.0,0.0,0.0,0.0,0.0,0.0,0.0,0.0,0.0,0.0,0.0,0.0,0.0,0.0,4.0,1.0,1.0
1715744821,120.0,0.0,0.12,0.0,0.0,0.0,0.0,0.0,2536.9848633,2536.9848633,0.0,0.0,0.0,0.555,199800.0,0.0,-6.0,-177.6999969,-0.8,885.7672119,0.0,21.6000004,40.9748726,0.0,0.0,0.0,0.0,0.0,0.0,0.0,0.0,0.0,0.0,0.0,0.0,0.0,0.0,0.0,0.0,0.0,0.0,0.0,0.0,4.0,1.0,1.0
1715744822,120.0,0.0,0.12,0.0,0.0,0.0,0.0,0.0,2537.5378418,2537.5378418,0.0,0.0,0.0,0.555,199800.0,0.0,-5.9000001,-177.6999969,-0.8,885.1000977,0.0,21.6000004,41.0090179,0.0,0.0,0.0,0.0,0.0,0.0,0.0,0.0,0.0,0.0,0.0,0.0,0.0,0.0,0.0,0.0,0.0,0.0,0.0,0.0,4.0,1.0,1.0
1715744823,120.0,0.0,0.12,0.0,0.0,0.0,0.0,0.0,2538.0910645,2538.0910645,0.0,0.0,0.0,0.555,199800.0,0.0,-6.0,-177.8000031,-0.8,884.454834,0.0,21.6000004,40.9862556,0.0,0.0,0.0,0.0,0.0,0.0,0.0,0.0,0.0,0.0,0.0,0.0,0.0,0.0,0.0,0.0,0.0,0.0,0.0,0.0,4.0,1.0,1.0
1715744824,120.0,0.0,0.12,0.0,0.0,0.0,0.0,0.0,2538.6442871,2538.6442871,0.0,0.0,0.0,0.555,199800.0,0.0,-5.9000001,-177.6999969,-0.8,884.1704102,0.0,21.6000004,40.9748726,0.0,0.0,0.0,0.0,0.0,0.0,0.0,0.0,0.0,0.0,0.0,0.0,0.0,0.0,0.0,0.0,0.0,0.0,0.0,0.0,4.0,1.0,1.0
1715744825,120.0,0.0,0.12,0.0,0.0,0.0,0.0,0.0,2539.1975098,2539.1975098,0.0,0.0,0.0,0.555,199800.0,0.0,-5.8000002,-178.0,-0.8,883.4597168,0.0,21.5,40.9634895,0.0,0.0,0.0,0.0,0.0,0.0,0.0,0.0,0.0,0.0,0.0,0.0,0.0,0.0,0.0,0.0,0.0,0.0,0.0,0.0,4.0,1.0,1.0
1715744826,120.0,0.0,0.12,0.0,0.0,0.0,0.0,0.0,2539.7504883,2539.7504883,0.0,0.0,0.0,0.555,199800.0,0.0,-5.9000001,-177.8000031,-0.8,883.2956543,0.0,21.5,40.9634895,0.0,0.0,0.0,0.0,0.0,0.0,0.0,0.0,0.0,0.0,0.0,0.0,0.0,0.0,0.0,0.0,0.0,0.0,0.0,0.0,4.0,1.0,1.0
1715744827,120.0,0.0,0.12,0.0,0.0,0.0,0.0,0.0,2540.3041992,2540.3041992,0.0,0.0,0.0,0.555,199800.0,0.0,-5.9000001,-177.8000031,-0.8,883.098877,0.0,21.6000004,40.9748726,0.0,0.0,0.0,0.0,0.0,0.0,0.0,0.0,0.0,0.0,0.0,0.0,0.0,0.0,0.0,0.0,0.0,0.0,0.0,0.0,4.0,1.0,1.0
1715744828,120.0,0.0,0.12,0.0,0.0,0.0,0.0,0.0,2540.8571777,2540.8571777,0.0,0.0,0.0,0.555,199800.0,0.0,-5.8000002,-177.8999939,-0.8,882.8691406,0.0,21.5,40.9862556,0.0,0.0,0.0,0.0,0.0,0.0,0.0,0.0,0.0,0.0,0.0,0.0,0.0,0.0,0.0,0.0,0.0,0.0,0.0,0.0,4.0,1.0,1.0
1715744829,120.0,0.0,0.12,0.0,0.0,0.0,0.0,0.0,2541.4106445,2541.4106445,0.0,0.0,0.0,0.555,199800.0,0.0,-5.9000001,-177.8000031,-0.9,882.7597656,0.0,21.5,40.9862556,0.0,0.0,0.0,0.0,0.0,0.0,0.0,0.0,0.0,0.0,0.0,0.0,0.0,0.0,0.0,0.0,0.0,0.0,0.0,0.0,4.0,1.0,1.0
1715744830,120.0,0.0,0.12,0.0,0.0,0.0,0.0,0.0,2541.958252,2541.958252,0.0,0.0,0.0,0.555,199800.0,0.0,-6.0,-177.8000031,-0.7,882.5300293,0.0,21.5,40.9862556,0.0,0.0,0.0,0.0,0.0,0.0,0.0,0.0,0.0,0.0,0.0,0.0,0.0,0.0,0.0,0.0,0.0,0.0,0.0,0.0,4.0,1.0,1.0
1715744831,120.0,0.0,0.12,0.0,0.0,0.0,0.0,0.0,2542.5114746,2542.5114746,0.0,0.0,0.0,0.555,199800.0,0.0,-5.9000001,-177.8000031,-0.8,881.03125,0.0,21.5,40.9634895,0.0,0.0,0.0,0.0,0.0,0.0,0.0,0.0,0.0,0.0,0.0,0.0,0.0,0.0,0.0,0.0,0.0,0.0,0.0,0.0,4.0,1.0,1.0
1715744832,120.0,0.0,0.12,0.0,0.0,0.0,0.0,0.0,2543.0646973,2543.0646973,0.0,0.0,0.0,0.555,199800.0,0.0,-5.9000001,-177.6999969,-0.8,879.619873,0.0,21.5,40.9634895,0.0,0.0,0.0,0.0,0.0,0.0,0.0,0.0,0.0,0.0,0.0,0.0,0.0,0.0,0.0,0.0,0.0,0.0,0.0,0.0,4.0,1.0,1.0
1715744833,120.0,0.0,0.12,0.0,0.0,0.0,0.0,0.0,2543.6176758,2543.6176758,0.0,0.0,0.0,0.555,199800.0,0.0,-5.9000001,-177.6999969,-0.7,878.8758545,0.0,21.5,40.9634895,0.0,0.0,0.0,0.0,0.0,0.0,0.0,0.0,0.0,0.0,0.0,0.0,0.0,0.0,0.0,0.0,0.0,0.0,0.0,0.0,4.0,1.0,1.0
1715744834,120.0,0.0,0.12,0.0,0.0,0.0,0.0,0.0,2544.1713867,2544.1713867,0.0,0.0,0.0,0.555,199800.0,0.0,-5.8000002,-177.6999969,-0.7,877.6176758,0.0,21.5,40.9862556,0.0,0.0,0.0,0.0,0.0,0.0,0.0,0.0,0.0,0.0,0.0,0.0,0.0,0.0,0.0,0.0,0.0,0.0,0.0,0.0,4.0,1.0,1.0
1715744835,120.0,0.0,0.12,0.0,0.0,0.0,0.0,0.0,2544.7241211,2544.7241211,0.0,0.0,0.0,0.555,199800.0,0.0,-5.9000001,-177.6000061,-0.7,877.048584,0.0,21.5,40.9862556,0.0,0.0,0.0,0.0,0.0,0.0,0.0,0.0,0.0,0.0,0.0,0.0,0.0,0.0,0.0,0.0,0.0,0.0,0.0,0.0,4.0,1.0,1.0
1715744836,120.0,0.0,0.12,0.0,0.0,0.0,0.0,0.0,2545.2770996,2545.2770996,0.0,0.0,0.0,0.555,199800.0,0.0,-5.9000001,-177.6000061,-0.7,876.4575195,0.0,21.6000004,40.9862556,0.0,0.0,0.0,0.0,0.0,0.0,0.0,0.0,0.0,0.0,0.0,0.0,0.0,0.0,0.0,0.0,0.0,0.0,0.0,0.0,4.0,1.0,1.0
1715744837,120.0,0.0,0.12,0.0,0.0,0.0,0.0,0.0,2545.8303223,2545.8303223,0.0,0.0,0.0,0.555,199800.0,0.0,-6.0,-177.6999969,-0.8,876.4356689,0.0,21.6000004,40.9634895,0.0,0.0,0.0,0.0,0.0,0.0,0.0,0.0,0.0,0.0,0.0,0.0,0.0,0.0,0.0,0.0,0.0,0.0,0.0,0.0,4.0,1.0,1.0
1715744838,120.0,0.0,0.12,0.0,0.0,0.0,0.0,0.0,2546.3835449,2546.3835449,0.0,0.0,0.0,0.555,199800.0,0.0,-5.8000002,-177.6999969,-0.8,876.3153076,0.0,21.6000004,40.9634895,0.0,0.0,0.0,0.0,0.0,0.0,0.0,0.0,0.0,0.0,0.0,0.0,0.0,0.0,0.0,0.0,0.0,0.0,0.0,0.0,4.0,1.0,1.0
1715744839,120.0,0.0,0.12,0.0,0.0,0.0,0.0,0.0,2546.9370117,2546.9370117,0.0,0.0,0.0,0.555,199800.0,0.0,-5.9000001,-177.8000031,-0.8,876.293457,0.0,21.6000004,40.9634895,0.0,0.0,0.0,0.0,0.0,0.0,0.0,0.0,0.0,0.0,0.0,0.0,0.0,0.0,0.0,0.0,0.0,0.0,0.0,0.0,4.0,1.0,1.0
1715744840,120.0,0.0,0.12,0.0,0.0,0.0,0.0,0.0,2547.4902344,2547.4902344,0.0,0.0,0.0,0.555,199800.0,0.0,-5.8000002,-177.6999969,-0.8,876.2167969,0.0,21.6000004,40.9634895,0.0,0.0,0.0,0.0,0.0,0.0,0.0,0.0,0.0,0.0,0.0,0.0,0.0,0.0,0.0,0.0,0.0,0.0,0.0,0.0,4.0,1.0,1.0
1715744841,120.0,0.0,0.12,0.0,0.0,0.0,0.0,0.0,2548.043457,2548.043457,0.0,0.0,0.0,0.555,199800.0,0.0,-5.8000002,-177.6999969,-0.7,875.6367188,0.0,21.6000004,40.9862556,0.0,0.0,0.0,0.0,0.0,0.0,0.0,0.0,0.0,0.0,0.0,0.0,0.0,0.0,0.0,0.0,0.0,0.0,0.0,0.0,4.0,1.0,1.0
1715744842,120.0,0.0,0.12,0.0,0.0,0.0,0.0,0.0,2548.5966797,2548.5966797,0.0,0.0,0.0,0.555,199800.0,0.0,-5.9000001,-177.8000031,-0.7,875.5053711,0.0,21.6000004,40.9976387,0.0,0.0,0.0,0.0,0.0,0.0,0.0,0.0,0.0,0.0,0.0,0.0,0.0,0.0,0.0,0.0,0.0,0.0,0.0,0.0,4.0,1.0,1.0
1715744843,120.0,0.0,0.12,0.0,0.0,0.0,0.0,0.0,2549.1499023,2549.1499023,0.0,0.0,0.0,0.555,199800.0,0.0,-5.8000002,-177.6999969,-0.9,875.1113281,0.0,21.5,40.9634895,0.0,0.0,0.0,0.0,0.0,0.0,0.0,0.0,0.0,0.0,0.0,0.0,0.0,0.0,0.0,0.0,0.0,0.0,0.0,0.0,4.0,1.0,1.0
1715744844,120.0,0.0,0.12,0.0,0.0,0.0,0.0,0.0,2549.7028809,2549.7028809,0.0,0.0,0.0,0.555,199800.0,0.0,-5.9000001,-177.6999969,-0.7,873.381958,0.0,21.5,40.9634895,0.0,0.0,0.0,0.0,0.0,0.0,0.0,0.0,0.0,0.0,0.0,0.0,0.0,0.0,0.0,0.0,0.0,0.0,0.0,0.0,4.0,1.0,1.0
1715744845,120.0,0.0,0.12,0.0,0.0,0.0,0.0,0.0,2550.2563477,2550.2563477,0.0,0.0,0.0,0.555,199800.0,0.0,-5.9000001,-177.6999969,-0.8,871.9367676,0.0,21.5,40.9634895,0.0,0.0,0.0,0.0,0.0,0.0,0.0,0.0,0.0,0.0,0.0,0.0,0.0,0.0,0.0,0.0,0.0,0.0,0.0,0.0,4.0,1.0,1.0
1715744846,120.0,0.0,0.12,0.0,0.0,0.0,0.0,0.0,2550.8098145,2550.8098145,0.0,0.0,0.0,0.555,199800.0,0.0,-6.0,-177.8000031,-0.8,871.3127441,0.0,21.5,40.9634895,0.0,0.0,0.0,0.0,0.0,0.0,0.0,0.0,0.0,0.0,0.0,0.0,0.0,0.0,0.0,0.0,0.0,0.0,0.0,0.0,4.0,1.0,1.0
1715744847,120.0,0.0,0.12,0.0,0.0,0.0,0.0,0.0,2551.3632812,2551.3632812,0.0,0.0,0.0,0.555,199800.0,0.0,-6.0,-177.6999969,-0.8,869.987793,0.0,21.5,40.9748726,0.0,0.0,0.0,0.0,0.0,0.0,0.0,0.0,0.0,0.0,0.0,0.0,0.0,0.0,0.0,0.0,0.0,0.0,0.0,0.0,4.0,0.0,1.0
1715744848,120.0,0.0,0.12,0.0,0.0,0.0,0.0,0.0,2551.9162598,2551.9162598,0.0,0.0,0.0,0.555,199800.0,0.0,-5.9000001,-177.6999969,-0.8,869.670166,0.0,21.5,40.9976387,0.0,0.0,0.0,0.0,0.0,0.0,0.0,0.0,0.0,0.0,0.0,0.0,0.0,0.0,0.0,0.0,0.0,0.0,0.0,0.0,4.0,1.0,1.0
1715744849,120.0,0.0,0.12,0.0,0.0,0.0,0.0,0.0,2552.4638672,2552.4638672,0.0,0.0,0.0,0.555,199800.0,0.0,-6.0999999,-177.6999969,-0.8,869.670166,0.0,21.6000004,40.9748726,0.0,0.0,0.0,0.0,0.0,0.0,0.0,0.0,0.0,0.0,0.0,0.0,0.0,0.0,0.0,0.0,0.0,0.0,0.0,0.0,4.0,1.0,1.0
1715744850,120.0,0.0,0.12,0.0,0.0,0.0,0.0,0.0,2553.0170898,2553.0170898,0.0,0.0,0.0,0.555,199800.0,0.0,-5.8000002,-177.8999939,-0.8,869.5388184,0.0,21.6000004,40.9634895,0.0,0.0,0.0,0.0,0.0,0.0,0.0,0.0,0.0,0.0,0.0,0.0,0.0,0.0,0.0,0.0,0.0,0.0,0.0,0.0,4.0,1.0,1.0
1715744851,120.0,0.0,0.12,0.0,0.0,0.0,0.0,0.0,2553.5703125,2553.5703125,0.0,0.0,0.0,0.555,199800.0,0.0,-5.9000001,-177.6999969,-0.8,869.3635254,0.0,21.6000004,40.9634895,0.0,0.0,0.0,0.0,0.0,0.0,0.0,0.0,0.0,0.0,0.0,0.0,0.0,0.0,0.0,0.0,0.0,0.0,0.0,0.0,4.0,1.0,1.0
1715744852,120.0,0.0,0.12,0.0,0.0,0.0,0.0,0.0,2554.1237793,2554.1237793,0.0,0.0,0.0,0.555,199800.0,0.0,-5.9000001,-177.6000061,-0.8,869.1445313,0.0,21.6000004,40.9634895,0.0,0.0,0.0,0.0,0.0,0.0,0.0,0.0,0.0,0.0,0.0,0.0,0.0,0.0,0.0,0.0,0.0,0.0,0.0,0.0,4.0,1.0,1.0
1715744853,120.0,0.0,0.12,0.0,0.0,0.0,0.0,0.0,2554.677002,2554.677002,0.0,0.0,0.0,0.555,199800.0,0.0,-6.0,-177.8999939,-0.8,868.279541,0.0,21.6000004,40.9748726,0.0,0.0,0.0,0.0,0.0,0.0,0.0,0.0,0.0,0.0,0.0,0.0,0.0,0.0,0.0,0.0,0.0,0.0,0.0,0.0,4.0,1.0,1.0
1715744854,120.0,0.0,0.12,0.0,0.0,0.0,0.0,0.0,2555.2302246,2555.2302246,0.0,0.0,0.0,0.555,199800.0,0.0,-5.8000002,-177.6999969,-0.8,868.0385742,0.0,21.5,40.9976387,0.0,0.0,0.0,0.0,0.0,0.0,0.0,0.0,0.0,0.0,0.0,0.0,0.0,0.0,0.0,0.0,0.0,0.0,0.0,0.0,4.0,1.0,1.0
1715744855,120.0,0.0,0.12,0.0,0.0,0.0,0.0,0.0,2555.7836914,2555.7836914,0.0,0.0,0.0,0.555,199800.0,0.0,-5.9000001,-177.8000031,-0.7,867.8634033,0.0,21.5,40.9748726,0.0,0.0,0.0,0.0,0.0,0.0,0.0,0.0,0.0,0.0,0.0,0.0,0.0,0.0,0.0,0.0,0.0,0.0,0.0,0.0,4.0,1.0,1.0
1715744856,120.0,0.0,0.12,0.0,0.0,0.0,0.0,0.0,2556.3369141,2556.3369141,0.0,0.0,0.0,0.555,199800.0,0.0,-5.9000001,-177.6999969,-0.7,866.0012207,0.0,21.6000004,40.9748726,0.0,0.0,0.0,0.0,0.0,0.0,0.0,0.0,0.0,0.0,0.0,0.0,0.0,0.0,0.0,0.0,0.0,0.0,0.0,0.0,4.0,1.0,1.0
1715744857,120.0,0.0,0.12,0.0,0.0,0.0,0.0,0.0,2556.8903809,2556.8903809,0.0,0.0,0.0,0.555,199800.0,0.0,-5.8000002,-177.8000031,-0.8,865.1467285,0.0,21.6000004,40.9634895,0.0,0.0,0.0,0.0,0.0,0.0,0.0,0.0,0.0,0.0,0.0,0.0,0.0,0.0,0.0,0.0,0.0,0.0,0.0,0.0,4.0,1.0,1.0
1715744858,120.0,0.0,0.12,0.0,0.0,0.0,0.0,0.0,2557.4438477,2557.4438477,0.0,0.0,0.0,0.555,199800.0,0.0,-5.9000001,-177.8000031,-0.8,864.2155762,0.0,21.5,40.9634895,0.0,0.0,0.0,0.0,0.0,0.0,0.0,0.0,0.0,0.0,0.0,0.0,0.0,0.0,0.0,0.0,0.0,0.0,0.0,0.0,4.0,1.0,1.0
