Ticks,z_setpoint,z_actual,z_p,z_i,z_d,w_command,w_actual,w_i,Nabla_command,Nabla_actual,Nabla_p,Nabla_i,Nabla_d,Qv_command,sps_command,Nabla_air,Roll,Pitch,Yaw,Scale Derived Oil Volume,Depth (raw),Temperature,Battery,VOS,RangeTime,RangeDist,USBLAzimuth,USBLElevation,USBLFitError,PositionEasting,PositionNorthing,PositionDepth,AUX0,AUX1,AUX2,AUX3,AUX4,AUX5,AUX6,AUX7,AUX8,AUX9,SrcID,State,VALVE_INDEX,EN_PUMP
1720610045,50.0,0.0,0.05,0.0,0.0,0.0,0.0,0.0,2800.0002441,2800.0002441,0.0,0.0,0.0,0.0,0.0,0.0,0.0,0.0,0.0,-136.9590454,0.0,0.0,41.1228371,0.0,0.0,0.0,0.0,0.0,0.0,0.0,0.0,0.0,0.0,0.0,0.0,0.0,0.0,0.0,0.0,0.0,0.0,0.0,0.0,5.0,1.0,0.0
1720610046,50.0,0.0,0.05,0.0,0.0,0.0,0.0,0.0,2800.0002441,2800.0002441,0.0,0.0,0.0,0.0,0.0,0.0,-3.3,-2.0,63.4000015,-136.9590454,0.0,15.0,41.1228371,0.0,0.0,0.0,0.0,0.0,0.0,0.0,0.0,0.0,0.0,0.0,0.0,0.0,0.0,0.0,0.0,0.0,0.0,0.0,0.0,3.0,1.0,0.0
1720610047,50.0,0.0,0.05,0.0,0.0,0.0,0.0,0.0,2800.0002441,2800.0002441,0.0,0.0,0.0,-0.555,-199800.0,0.0,-3.3,-1.9,64.9000015,-136.9590454,0.0,15.0,41.1228371,0.0,0.0,0.0,0.0,0.0,0.0,0.0,0.0,0.0,0.0,0.0,0.0,0.0,0.0,0.0,0.0,0.0,0.0,0.0,0.0,3.0,1.0,1.0
1720610048,50.0,0.0,0.05,0.0,0.0,0.0,0.0,0.0,2800.0,2800.0,0.0,0.0,0.0,-0.555,-199800.0,0.0,2.2,-1.6,65.1999969,-136.9590454,0.0,15.0,41.1228371,0.0,0.0,0.0,0.0,0.0,0.0,0.0,0.0,0.0,0.0,0.0,0.0,0.0,0.0,0.0,0.0,0.0,0.0,0.0,0.0,3.0,1.0,1.0
1720610049,50.0,0.0,0.05,0.0,0.0,0.0,0.0,0.0,2800.0,2800.0,0.0,0.0,0.0,-0.555,-199800.0,0.0,-7.8000002,-2.3,65.0,-136.9590454,0.0,15.0,41.1228371,0.0,0.0,0.0,0.0,0.0,0.0,0.0,0.0,0.0,0.0,0.0,0.0,0.0,0.0,0.0,0.0,0.0,0.0,0.0,0.0,3.0,1.0,1.0
1720610050,50.0,0.0,0.05,0.0,0.0,0.0,0.0,0.0,2800.0,2800.0,0.0,0.0,0.0,-0.555,-199800.0,0.0,3.5999999,-1.6,64.5999985,-136.9590454,0.0,15.0,41.1228371,0.0,0.0,0.0,0.0,0.0,0.0,0.0,0.0,0.0,0.0,0.0,0.0,0.0,0.0,0.0,0.0,0.0,0.0,0.0,0.0,3.0,1.0,1.0
1720610051,50.0,0.0,0.05,0.0,0.0,0.0,0.0,0.0,2800.0,2800.0,0.0,0.0,0.0,-0.555,-199800.0,0.0,-4.5999999,-1.7,64.0,-136.9590454,0.0,15.0,41.1228371,0.0,0.0,0.0,0.0,0.0,0.0,0.0,0.0,0.0,0.0,0.0,0.0,0.0,0.0,0.0,0.0,0.0,0.0,0.0,0.0,3.0,1.0,1.0
1720610052,50.0,0.0,0.05,0.0,0.0,0.0,0.0,0.0,2800.0,2800.0,0.0,0.0,0.0,-0.555,-199800.0,0.0,-0.1,-2.4000001,65.4000015,-104.0640869,0.0,15.0,41.1228371,0.0,0.0,0.0,0.0,0.0,0.0,0.0,0.0,0.0,0.0,0.0,0.0,0.0,0.0,0.0,0.0,0.0,0.0,0.0,0.0,3.0,1.0,1.0
1720610053,50.0,0.0,0.05,0.0,0.0,0.0,0.0,0.0,2799.5688477,2799.5688477,0.0,0.0,0.0,-0.555,-199800.0,0.0,-2.0,-1.3,63.7000008,-99.6518555,0.0,15.0,41.1228371,0.0,0.0,0.0,0.0,0.0,0.0,0.0,0.0,0.0,0.0,0.0,0.0,0.0,0.0,0.0,0.0,0.0,0.0,0.0,0.0,3.0,1.0,1.0
1720610054,50.0,0.0,0.05,0.0,0.0,0.0,0.0,0.0,2799.4523926,2799.4523926,0.0,0.0,0.0,-0.555,-199800.0,0.0,-3.2,-2.2,64.5999985,-99.6518555,0.0,15.0,41.1114578,0.0,0.0,0.0,0.0,0.0,0.0,0.0,0.0,0.0,0.0,0.0,0.0,0.0,0.0,0.0,0.0,0.0,0.0,0.0,0.0,3.0,1.0,1.0
1720610055,50.0,0.0,0.05,0.0,0.0,0.0,0.0,0.0,2799.4523926,2799.4523926,0.0,0.0,0.0,-0.555,-199800.0,0.0,1.1,-1.2,64.5,-90.0279541,0.0,15.0,41.1114578,0.0,0.0,0.0,0.0,0.0,0.0,0.0,0.0,0.0,0.0,0.0,0.0,0.0,0.0,0.0,0.0,0.0,0.0,0.0,0.0,3.0,1.0,1.0
1720610056,50.0,0.0,0.05,0.0,0.0,0.0,0.0,0.0,2799.4521484,2799.4521484,0.0,0.0,0.0,-0.555,-199800.0,0.0,-3.7,-1.4,65.0,-82.4542236,0.0,15.0,41.1114578,0.0,0.0,0.0,0.0,0.0,0.0,0.0,0.0,0.0,0.0,0.0,0.0,0.0,0.0,0.0,0.0,0.0,0.0,0.0,0.0,3.0,1.0,1.0
1720610057,50.0,0.0,0.05,0.0,0.0,0.0,0.0,0.0,2799.4467773,2799.4467773,0.0,0.0,0.0,-0.555,-199800.0,0.0,-1.5,-2.2,64.4000015,-82.4542236,0.0,15.0,41.1000748,0.0,0.0,0.0,0.0,0.0,0.0,0.0,0.0,0.0,0.0,0.0,0.0,0.0,0.0,0.0,0.0,0.0,0.0,0.0,0.0,3.0,1.0,1.0
1720610058,50.0,0.0,0.05,0.0,0.0,0.0,0.0,0.0,2799.4467773,2799.4467773,0.0,0.0,0.0,-0.555,-199800.0,0.0,-1.9,-1.7,63.5,-82.4542236,0.0,15.0,41.1000748,0.0,0.0,0.0,0.0,0.0,0.0,0.0,0.0,0.0,0.0,0.0,0.0,0.0,0.0,0.0,0.0,0.0,0.0,0.0,0.0,3.0,1.0,1.0
1720610059,50.0,0.0,0.05,0.0,0.0,0.0,0.0,0.0,2799.4467773,2799.4467773,0.0,0.0,0.0,-0.555,-199800.0,0.0,-1.6,-1.5,64.3000031,-82.4542236,0.0,15.0,41.1000748,0.0,0.0,0.0,0.0,0.0,0.0,0.0,0.0,0.0,0.0,0.0,0.0,0.0,0.0,0.0,0.0,0.0,0.0,0.0,0.0,3.0,1.0,1.0
1720610060,50.0,0.0,0.05,0.0,0.0,0.0,0.0,0.0,2799.4467773,2799.4467773,0.0,0.0,0.0,-0.555,-199800.0,0.0,0.8,-2.2,64.9000015,-82.4542236,0.0,15.0,41.1000748,0.0,0.0,0.0,0.0,0.0,0.0,0.0,0.0,0.0,0.0,0.0,0.0,0.0,0.0,0.0,0.0,0.0,0.0,0.0,0.0,3.0,1.0,1.0
1720610061,50.0,0.0,0.05,0.0,0.0,0.0,0.0,0.0,2799.4467773,2799.4467773,0.0,0.0,0.0,-0.555,-199800.0,0.0,-4.3000002,-1.5,63.7999992,-82.4542236,0.0,15.0,41.0659294,0.0,0.0,0.0,0.0,0.0,0.0,0.0,0.0,0.0,0.0,0.0,0.0,0.0,0.0,0.0,0.0,0.0,0.0,0.0,0.0,3.0,1.0,1.0
1720610062,50.0,0.0,0.05,0.0,0.0,0.0,0.0,0.0,2799.4467773,2799.4467773,0.0,0.0,0.0,-0.555,-199800.0,0.0,-0.4,-1.4,63.0,-88.0661621,0.0,15.0,41.0545464,0.0,0.0,0.0,0.0,0.0,0.0,0.0,0.0,0.0,0.0,0.0,0.0,0.0,0.0,0.0,0.0,0.0,0.0,0.0,0.0,3.0,1.0,1.0
1720610063,50.0,0.0,0.05,0.0,0.0,0.0,0.0,0.0,2799.4467773,2799.4467773,0.0,0.0,0.0,-0.555,-199800.0,0.0,-1.4,-2.0,62.5,-89.5551758,0.0,15.0,41.0317841,0.0,0.0,0.0,0.0,0.0,0.0,0.0,0.0,0.0,0.0,0.0,0.0,0.0,0.0,0.0,0.0,0.0,0.0,0.0,0.0,3.0,1.0,1.0
1720610064,50.0,0.0,0.05,0.0,0.0,0.0,0.0,0.0,2799.4467773,2799.4467773,0.0,0.0,0.0,-0.555,-199800.0,0.0,-1.7,-1.8,64.1999969,-88.0661621,0.0,15.0,40.9976387,0.0,0.0,0.0,0.0,0.0,0.0,0.0,0.0,0.0,0.0,0.0,0.0,0.0,0.0,0.0,0.0,0.0,0.0,0.0,0.0,3.0,1.0,1.0
1720610065,50.0,0.0,0.05,0.0,0.0,0.0,0.0,0.0,2799.4467773,2799.4467773,0.0,0.0,0.0,-0.555,-199800.0,0.0,0.6,-1.9,65.0,-88.0661621,0.0,15.0,40.9862556,0.0,0.0,0.0,0.0,0.0,0.0,0.0,0.0,0.0,0.0,0.0,0.0,0.0,0.0,0.0,0.0,0.0,0.0,0.0,0.0,3.0,1.0,1.0
1720610066,50.0,0.0,0.05,0.0,0.0,0.0,0.0,0.0,2799.4467773,2799.4467773,0.0,0.0,0.0,-0.555,-199800.0,0.0,-4.3000002,-1.2,64.9000015,-88.0661621,0.0,15.0,40.9862556,0.0,0.0,0.0,0.0,0.0,0.0,0.0,0.0,0.0,0.0,0.0,0.0,0.0,0.0,0.0,0.0,0.0,0.0,0.0,0.0,3.0,1.0,1.0
1720610067,50.0,0.0,0.05,0.0,0.0,0.0,0.0,0.0,2799.4467773,2799.4467773,0.0,0.0,0.0,-0.555,-199800.0,0.0,1.1,-1.9,65.0999985,-88.0661621,0.0,15.0,40.9862556,0.0,0.0,0.0,0.0,0.0,0.0,0.0,0.0,0.0,0.0,0.0,0.0,0.0,0.0,0.0,0.0,0.0,0.0,0.0,0.0,3.0,1.0,1.0
1720610068,50.0,0.0,0.05,0.0,0.0,0.0,0.0,0.0,2799.4467773,2799.4467773,0.0,0.0,0.0,-0.555,-199800.0,0.0,-1.3,-1.8,63.7000008,-87.9952393,0.0,15.0,40.9862556,0.0,0.0,0.0,0.0,0.0,0.0,0.0,0.0,0.0,0.0,0.0,0.0,0.0,0.0,0.0,0.0,0.0,0.0,0.0,0.0,3.0,1.0,1.0
1720610069,50.0,0.0,0.05,0.0,0.0,0.0,0.0,0.0,2799.4467773,2799.4467773,0.0,0.0,0.0,-0.555,-199800.0,0.0,-3.5,-1.5,63.9000015,-87.9952393,0.0,15.0,40.9748726,0.0,0.0,0.0,0.0,0.0,0.0,0.0,0.0,0.0,0.0,0.0,0.0,0.0,0.0,0.0,0.0,0.0,0.0,0.0,0.0,3.0,1.0,1.0
1720610070,50.0,0.0,0.05,0.0,0.0,0.0,0.0,0.0,2799.4467773,2799.4467773,0.0,0.0,0.0,-0.555,-199800.0,0.0,3.5999999,-1.7,64.0,-87.9952393,0.0,15.0,40.9748726,0.0,0.0,0.0,0.0,0.0,0.0,0.0,0.0,0.0,0.0,0.0,0.0,0.0,0.0,0.0,0.0,0.0,0.0,0.0,0.0,3.0,1.0,1.0
1720610071,50.0,0.0,0.05,0.0,0.0,0.0,0.0,0.0,2799.4467773,2799.4467773,0.0,0.0,0.0,-0.555,-199800.0,0.0,-3.7,-1.8,65.0999985,-87.9952393,0.0,15.0,40.9748726,0.0,0.0,0.0,0.0,0.0,0.0,0.0,0.0,0.0,0.0,0.0,0.0,0.0,0.0,0.0,0.0,0.0,0.0,0.0,0.0,3.0,1.0,1.0
1720610072,50.0,0.0,0.05,0.0,0.0,0.0,0.0,0.0,2799.4521484,2799.4521484,0.0,0.0,0.0,-0.555,-199800.0,0.0,-0.2,-1.9,64.6999969,-73.6806641,0.0,15.0,40.9748726,0.0,0.0,0.0,0.0,0.0,0.0,0.0,0.0,0.0,0.0,0.0,0.0,0.0,0.0,0.0,0.0,0.0,0.0,0.0,0.0,3.0,1.0,1.0
1720610073,50.0,0.0,0.05,0.0,0.0,0.0,0.0,0.0,2799.4521484,2799.4521484,0.0,0.0,0.0,-0.555,-199800.0,0.0,-1.3,-1.4,63.2999992,-72.8897705,0.0,15.0,40.9862556,0.0,0.0,0.0,0.0,0.0,0.0,0.0,0.0,0.0,0.0,0.0,0.0,0.0,0.0,0.0,0.0,0.0,0.0,0.0,0.0,3.0,1.0,1.0
1720610074,50.0,0.0,0.05,0.0,0.0,0.0,0.0,0.0,2799.4526367,2799.4526367,0.0,0.0,0.0,-0.555,-199800.0,0.0,-0.9,-1.6,62.7999992,-72.8897705,0.0,15.0,40.9976387,0.0,0.0,0.0,0.0,0.0,0.0,0.0,0.0,0.0,0.0,0.0,0.0,0.0,0.0,0.0,0.0,0.0,0.0,0.0,0.0,3.0,1.0,1.0
1720610075,50.0,0.0,0.05,0.0,0.0,0.0,0.0,0.0,2799.4526367,2799.4526367,0.0,0.0,0.0,-0.555,-199800.0,0.0,-0.1,-1.9,62.7000008,-80.5644531,0.0,15.0,40.9748726,0.0,0.0,0.0,0.0,0.0,0.0,0.0,0.0,0.0,0.0,0.0,0.0,0.0,0.0,0.0,0.0,0.0,0.0,0.0,0.0,3.0,1.0,1.0
1720610076,50.0,0.0,0.05,0.0,0.0,0.0,0.0,0.0,2799.4521484,2799.4521484,0.0,0.0,0.0,-0.555,-199800.0,0.0,-0.9,-1.9,63.5999985,-72.8897705,0.0,15.0,40.9748726,0.0,0.0,0.0,0.0,0.0,0.0,0.0,0.0,0.0,0.0,0.0,0.0,0.0,0.0,0.0,0.0,0.0,0.0,0.0,0.0,3.0,1.0,1.0
1720610077,50.0,0.0,0.05,0.0,0.0,0.0,0.0,0.0,2799.4521484,2799.4521484,0.0,0.0,0.0,-0.555,-199800.0,0.0,0.2,-1.2,64.4000015,-71.6386719,0.0,15.0,40.9748726,0.0,0.0,0.0,0.0,0.0,0.0,0.0,0.0,0.0,0.0,0.0,0.0,0.0,0.0,0.0,0.0,0.0,0.0,0.0,0.0,3.0,1.0,1.0
1720610078,50.0,0.0,0.05,0.0,0.0,0.0,0.0,0.0,2799.4521484,2799.4521484,0.0,0.0,0.0,-0.555,-199800.0,0.0,-2.2,-2.0,64.8000031,-69.1722412,0.0,15.0,40.9748726,0.0,0.0,0.0,0.0,0.0,0.0,0.0,0.0,0.0,0.0,0.0,0.0,0.0,0.0,0.0,0.0,0.0,0.0,0.0,0.0,3.0,1.0,1.0
1720610079,50.0,0.0,0.05,0.0,0.0,0.0,0.0,0.0,2799.4467773,2799.4467773,0.0,0.0,0.0,-0.555,-199800.0,0.0,1.2,-1.9,64.9000015,-65.6324463,0.0,15.0,40.9862556,0.0,0.0,0.0,0.0,0.0,0.0,0.0,0.0,0.0,0.0,0.0,0.0,0.0,0.0,0.0,0.0,0.0,0.0,0.0,0.0,3.0,0.0,1.0
1720610080,50.0,0.0,0.05,0.0,0.0,0.0,0.0,0.0,2799.4470215,2799.4470215,0.0,0.0,0.0,-0.555,-199800.0,0.0,-3.4000001,-1.9,64.1999969,-69.1722412,0.0,15.0,40.9976387,0.0,0.0,0.0,0.0,0.0,0.0,0.0,0.0,0.0,0.0,0.0,0.0,0.0,0.0,0.0,0.0,0.0,0.0,0.0,0.0,3.0,1.0,1.0
1720610081,50.0,0.0,0.05,0.0,0.0,0.0,0.0,0.0,2799.4467773,2799.4467773,0.0,0.0,0.0,-0.555,-199800.0,0.0,0.1,-1.6,64.5,-69.1722412,0.0,15.0,40.9862556,0.0,0.0,0.0,0.0,0.0,0.0,0.0,0.0,0.0,0.0,0.0,0.0,0.0,0.0,0.0,0.0,0.0,0.0,0.0,0.0,3.0,1.0,1.0
1720610082,50.0,0.0,0.05,0.0,0.0,0.0,0.0,0.0,2799.4467773,2799.4467773,0.0,0.0,0.0,-0.555,-199800.0,0.0,0.7,-2.3,64.1999969,-69.1722412,0.0,15.0,40.9748726,0.0,0.0,0.0,0.0,0.0,0.0,0.0,0.0,0.0,0.0,0.0,0.0,0.0,0.0,0.0,0.0,0.0,0.0,0.0,0.0,3.0,1.0,1.0
1720610083,50.0,0.0,0.05,0.0,0.0,0.0,0.0,0.0,2799.4467773,2799.4467773,0.0,0.0,0.0,-0.555,-199800.0,0.0,-2.7,-1.0,64.8000031,-65.6324463,0.0,15.0,40.9634895,0.0,0.0,0.0,0.0,0.0,0.0,0.0,0.0,0.0,0.0,0.0,0.0,0.0,0.0,0.0,0.0,0.0,0.0,0.0,0.0,3.0,1.0,1.0
1720610084,50.0,0.0,0.05,0.0,0.0,0.0,0.0,0.0,2799.4467773,2799.4467773,0.0,0.0,0.0,-0.555,-199800.0,0.0,1.6,-1.4,64.5,-63.6861572,0.0,15.0,40.9634895,0.0,0.0,0.0,0.0,0.0,0.0,0.0,0.0,0.0,0.0,0.0,0.0,0.0,0.0,0.0,0.0,0.0,0.0,0.0,0.0,3.0,1.0,1.0
1720610085,50.0,0.0,0.05,0.0,0.0,0.0,0.0,0.0,2799.4467773,2799.4467773,0.0,0.0,0.0,-0.555,-199800.0,0.0,-3.3,-2.7,63.5999985,-63.6861572,0.0,15.0,40.9862556,0.0,0.0,0.0,0.0,0.0,0.0,0.0,0.0,0.0,0.0,0.0,0.0,0.0,0.0,0.0,0.0,0.0,0.0,0.0,0.0,3.0,1.0,1.0
1720610086,50.0,0.0,0.05,0.0,0.0,0.0,0.0,0.0,2799.4467773,2799.4467773,0.0,0.0,0.0,-0.555,-199800.0,0.0,0.8,-1.1,63.0999985,-63.6861572,0.0,15.0,40.9976387,0.0,0.0,0.0,0.0,0.0,0.0,0.0,0.0,0.0,0.0,0.0,0.0,0.0,0.0,0.0,0.0,0.0,0.0,0.0,0.0,3.0,1.0,1.0
1720610087,50.0,0.0,0.05,0.0,0.0,0.0,0.0,0.0,2799.4467773,2799.4467773,0.0,0.0,0.0,-0.555,-199800.0,0.0,-1.8,-1.9,63.0999985,-69.1722412,0.0,15.0,40.9862556,0.0,0.0,0.0,0.0,0.0,0.0,0.0,0.0,0.0,0.0,0.0,0.0,0.0,0.0,0.0,0.0,0.0,0.0,0.0,0.0,3.0,1.0,1.0
1720610088,50.0,0.0,0.05,0.0,0.0,0.0,0.0,0.0,2799.4467773,2799.4467773,0.0,0.0,0.0,-0.555,-199800.0,0.0,-0.4,-2.2,63.4000015,-63.6861572,0.0,15.0,40.9634895,0.0,0.0,0.0,0.0,0.0,0.0,0.0,0.0,0.0,0.0,0.0,0.0,0.0,0.0,0.0,0.0,0.0,0.0,0.0,0.0,3.0,1.0,1.0
1720610089,50.0,0.0,0.05,0.0,0.0,0.0,0.0,0.0,2799.4467773,2799.4467773,0.0,0.0,0.0,-0.555,-199800.0,0.0,0.9,-0.3,64.3000031,-62.8250732,0.0,15.0,40.9521103,0.0,0.0,0.0,0.0,0.0,0.0,0.0,0.0,0.0,0.0,0.0,0.0,0.0,0.0,0.0,0.0,0.0,0.0,0.0,0.0,3.0,1.0,1.0
1720610090,50.0,0.0,0.05,0.0,0.0,0.0,0.0,0.0,2799.4467773,2799.4467773,0.0,0.0,0.0,-0.555,-199800.0,0.0,-3.3,-2.7,64.0999985,-59.2163086,0.0,15.0,40.9634895,0.0,0.0,0.0,0.0,0.0,0.0,0.0,0.0,0.0,0.0,0.0,0.0,0.0,0.0,0.0,0.0,0.0,0.0,0.0,0.0,3.0,1.0,1.0
1720610091,50.0,0.0,0.05,0.0,0.0,0.0,0.0,0.0,2799.4465332,2799.4465332,0.0,0.0,0.0,-0.555,-199800.0,0.0,0.5,-1.9,63.0999985,-59.2163086,0.0,15.0,40.9634895,0.0,0.0,0.0,0.0,0.0,0.0,0.0,0.0,0.0,0.0,0.0,0.0,0.0,0.0,0.0,0.0,0.0,0.0,0.0,0.0,3.0,1.0,1.0
1720610092,50.0,0.0,0.05,0.0,0.0,0.0,0.0,0.0,2799.4467773,2799.4467773,0.0,0.0,0.0,-0.555,-199800.0,0.0,-1.0,-1.7,63.5,-59.3459473,0.0,15.0,40.9862556,0.0,0.0,0.0,0.0,0.0,0.0,0.0,0.0,0.0,0.0,0.0,0.0,0.0,0.0,0.0,0.0,0.0,0.0,0.0,0.0,3.0,1.0,1.0
1720610093,50.0,0.0,0.05,0.0,0.0,0.0,0.0,0.0,2799.4467773,2799.4467773,0.0,0.0,0.0,-0.555,-199800.0,0.0,-0.3,-1.3,65.3000031,-59.3459473,0.0,15.0,40.9976387,0.0,0.0,0.0,0.0,0.0,0.0,0.0,0.0,0.0,0.0,0.0,0.0,0.0,0.0,0.0,0.0,0.0,0.0,0.0,0.0,3.0,1.0,1.0
1720610094,50.0,0.0,0.05,0.0,0.0,0.0,0.0,0.0,2799.4519043,2799.4519043,0.0,0.0,0.0,-0.555,-199800.0,0.0,-0.4,-2.5999999,64.8000031,-59.3459473,0.0,15.0,40.9634895,0.0,0.0,0.0,0.0,0.0,0.0,0.0,0.0,0.0,0.0,0.0,0.0,0.0,0.0,0.0,0.0,0.0,0.0,0.0,0.0,3.0,1.0,1.0
1720610095,50.0,0.0,0.05,0.0,0.0,0.0,0.0,0.0,2799.4523926,2799.4523926,0.0,0.0,0.0,-0.555,-199800.0,0.0,-3.7,-1.5,63.5,-59.3459473,0.0,15.0,40.9634895,0.0,0.0,0.0,0.0,0.0,0.0,0.0,0.0,0.0,0.0,0.0,0.0,0.0,0.0,0.0,0.0,0.0,0.0,0.0,0.0,3.0,1.0,1.0
1720610096,50.0,0.0,0.05,0.0,0.0,0.0,0.0,0.0,2799.4519043,2799.4519043,0.0,0.0,0.0,-0.555,-199800.0,0.0,1.7,-1.2,64.1999969,-59.2163086,0.0,15.0,40.9634895,0.0,0.0,0.0,0.0,0.0,0.0,0.0,0.0,0.0,0.0,0.0,0.0,0.0,0.0,0.0,0.0,0.0,0.0,0.0,0.0,3.0,1.0,1.0
1720610097,50.0,0.0,0.05,0.0,0.0,0.0,0.0,0.0,2799.4521484,2799.4521484,0.0,0.0,0.0,-0.555,-199800.0,0.0,-0.1,-2.3,64.5999985,-56.0092773,0.0,15.0,40.9634895,0.0,0.0,0.0,0.0,0.0,0.0,0.0,0.0,0.0,0.0,0.0,0.0,0.0,0.0,0.0,0.0,0.0,0.0,0.0,0.0,3.0,1.0,1.0
1720610098,50.0,0.0,0.05,0.0,0.0,0.0,0.0,0.0,2799.4526367,2799.4526367,0.0,0.0,0.0,-0.555,-199800.0,0.0,-4.0,-2.0,63.7999992,-59.3459473,0.0,15.0,40.9748726,0.0,0.0,0.0,0.0,0.0,0.0,0.0,0.0,0.0,0.0,0.0,0.0,0.0,0.0,0.0,0.0,0.0,0.0,0.0,0.0,3.0,1.0,1.0
1720610099,50.0,0.0,0.05,0.0,0.0,0.0,0.0,0.0,2799.4523926,2799.4523926,0.0,0.0,0.0,-0.555,-199800.0,0.0,1.7,-1.6,62.7000008,-59.3459473,0.0,15.0,40.9976387,0.0,0.0,0.0,0.0,0.0,0.0,0.0,0.0,0.0,0.0,0.0,0.0,0.0,0.0,0.0,0.0,0.0,0.0,0.0,0.0,3.0,1.0,1.0
1720610100,50.0,0.0,0.05,0.0,0.0,0.0,0.0,0.0,2799.4467773,2799.4467773,0.0,0.0,0.0,-0.555,-199800.0,0.0,-1.7,-1.8,62.7999992,-56.0092773,0.0,15.0,40.9748726,0.0,0.0,0.0,0.0,0.0,0.0,0.0,0.0,0.0,0.0,0.0,0.0,0.0,0.0,0.0,0.0,0.0,0.0,0.0,0.0,3.0,1.0,1.0
1720610101,50.0,0.0,0.05,0.0,0.0,0.0,0.0,0.0,2799.4467773,2799.4467773,0.0,0.0,0.0,-0.555,-199800.0,0.0,-0.5,-1.4,63.5999985,-50.5168457,0.0,15.0,40.9634895,0.0,0.0,0.0,0.0,0.0,0.0,0.0,0.0,0.0,0.0,0.0,0.0,0.0,0.0,0.0,0.0,0.0,0.0,0.0,0.0,3.0,1.0,1.0
1720610102,50.0,0.0,0.05,0.0,0.0,0.0,0.0,0.0,2799.4467773,2799.4467773,0.0,0.0,0.0,-0.555,-199800.0,0.0,-1.1,-1.8,62.7999992,-50.5168457,0.0,15.0,40.9634895,0.0,0.0,0.0,0.0,0.0,0.0,0.0,0.0,0.0,0.0,0.0,0.0,0.0,0.0,0.0,0.0,0.0,0.0,0.0,0.0,3.0,1.0,1.0
1720610103,50.0,0.0,0.05,0.0,0.0,0.0,0.0,0.0,2799.4470215,2799.4470215,0.0,0.0,0.0,-0.555,-199800.0,0.0,-2.8,-1.9,63.4000015,-56.0092773,0.0,15.0,40.9634895,0.0,0.0,0.0,0.0,0.0,0.0,0.0,0.0,0.0,0.0,0.0,0.0,0.0,0.0,0.0,0.0,0.0,0.0,0.0,0.0,3.0,1.0,1.0
1720610104,50.0,0.0,0.05,0.0,0.0,0.0,0.0,0.0,2799.4465332,2799.4465332,0.0,0.0,0.0,-0.555,-199800.0,0.0,2.8,-1.4,64.5999985,-56.0092773,0.0,15.0,40.9748726,0.0,0.0,0.0,0.0,0.0,0.0,0.0,0.0,0.0,0.0,0.0,0.0,0.0,0.0,0.0,0.0,0.0,0.0,0.0,0.0,3.0,1.0,1.0
1720610105,50.0,0.0,0.05,0.0,0.0,0.0,0.0,0.0,2799.4472656,2799.4472656,0.0,0.0,0.0,-0.555,-199800.0,0.0,-3.7,-2.0,65.1999969,-56.0092773,0.0,15.0,40.9976387,0.0,0.0,0.0,0.0,0.0,0.0,0.0,0.0,0.0,0.0,0.0,0.0,0.0,0.0,0.0,0.0,0.0,0.0,0.0,0.0,3.0,1.0,1.0
1720610106,50.0,0.0,0.05,0.0,0.0,0.0,0.0,0.0,2799.4467773,2799.4467773,0.0,0.0,0.0,-0.555,-199800.0,0.0,0.5,-1.8,65.0,-38.2670898,0.0,15.0,40.9748726,0.0,0.0,0.0,0.0,0.0,0.0,0.0,0.0,0.0,0.0,0.0,0.0,0.0,0.0,0.0,0.0,0.0,0.0,0.0,0.0,3.0,1.0,1.0
1720610107,50.0,0.0,0.05,0.0,0.0,0.0,0.0,0.0,2799.4467773,2799.4467773,0.0,0.0,0.0,-0.555,-199800.0,0.0,-1.3,-1.9,63.5999985,-38.2670898,0.0,15.0,40.9634895,0.0,0.0,0.0,0.0,0.0,0.0,0.0,0.0,0.0,0.0,0.0,0.0,0.0,0.0,0.0,0.0,0.0,0.0,0.0,0.0,3.0,1.0,1.0
1720610108,50.0,0.0,0.05,0.0,0.0,0.0,0.0,0.0,2799.4467773,2799.4467773,0.0,0.0,0.0,-0.555,-199800.0,0.0,-2.8,-1.3,63.0999985,-56.0092773,0.0,15.1000004,40.9521103,0.0,0.0,0.0,0.0,0.0,0.0,0.0,0.0,0.0,0.0,0.0,0.0,0.0,0.0,0.0,0.0,0.0,0.0,0.0,0.0,3.0,1.0,1.0
1720610109,50.0,0.0,0.05,0.0,0.0,0.0,0.0,0.0,2799.4467773,2799.4467773,0.0,0.0,0.0,-0.555,-199800.0,0.0,1.3,-1.9,62.9000015,-38.2670898,0.0,15.1000004,40.9521103,0.0,0.0,0.0,0.0,0.0,0.0,0.0,0.0,0.0,0.0,0.0,0.0,0.0,0.0,0.0,0.0,0.0,0.0,0.0,0.0,3.0,1.0,1.0
1720610110,50.0,0.0,0.05,0.0,0.0,0.0,0.0,0.0,2799.4519043,2799.4519043,0.0,0.0,0.0,-0.555,-199800.0,0.0,-0.3,-1.5,64.5,-37.8078613,0.0,15.1000004,40.9634895,0.0,0.0,0.0,0.0,0.0,0.0,0.0,0.0,0.0,0.0,0.0,0.0,0.0,0.0,0.0,0.0,0.0,0.0,0.0,0.0,3.0,1.0,1.0
1720610111,50.0,0.0,0.05,0.0,0.0,0.0,0.0,0.0,2799.4523926,2799.4523926,0.0,0.0,0.0,-0.555,-199800.0,0.0,-1.0,-1.8,64.1999969,-37.8078613,0.0,15.1000004,40.9748726,0.0,0.0,0.0,0.0,0.0,0.0,0.0,0.0,0.0,0.0,0.0,0.0,0.0,0.0,0.0,0.0,0.0,0.0,0.0,0.0,3.0,1.0,1.0
1720610112,50.0,0.0,0.05,0.0,0.0,0.0,0.0,0.0,2799.4526367,2799.4526367,0.0,0.0,0.0,-0.555,-199800.0,0.0,-1.0,-2.0,62.9000015,-38.2670898,0.0,15.0,40.9748726,0.0,0.0,0.0,0.0,0.0,0.0,0.0,0.0,0.0,0.0,0.0,0.0,0.0,0.0,0.0,0.0,0.0,0.0,0.0,0.0,3.0,1.0,1.0
1720610113,50.0,0.0,0.05,0.0,0.0,0.0,0.0,0.0,2799.4526367,2799.4526367,0.0,0.0,0.0,-0.555,-199800.0,0.0,-1.4,-1.4,62.2999992,-37.8078613,0.0,15.0,40.9634895,0.0,0.0,0.0,0.0,0.0,0.0,0.0,0.0,0.0,0.0,0.0,0.0,0.0,0.0,0.0,0.0,0.0,0.0,0.0,0.0,3.0,1.0,1.0
1720610114,50.0,0.0,0.05,0.0,0.0,0.0,0.0,0.0,2799.4523926,2799.4523926,0.0,0.0,0.0,-0.555,-199800.0,0.0,1.8,-1.6,62.9000015,-32.6289062,0.0,15.1000004,40.9521103,0.0,0.0,0.0,0.0,0.0,0.0,0.0,0.0,0.0,0.0,0.0,0.0,0.0,0.0,0.0,0.0,0.0,0.0,0.0,0.0,3.0,1.0,1.0
1720610115,50.0,0.0,0.05,0.0,0.0,0.0,0.0,0.0,2799.4411621,2799.4411621,0.0,0.0,0.0,-0.555,-199800.0,0.0,-3.0,-1.6,63.7000008,-32.6289062,0.0,15.1000004,40.9521103,0.0,0.0,0.0,0.0,0.0,0.0,0.0,0.0,0.0,0.0,0.0,0.0,0.0,0.0,0.0,0.0,0.0,0.0,0.0,0.0,3.0,1.0,1.0
1720610116,50.0,0.0,0.05,0.0,0.0,0.0,0.0,0.0,2799.4521484,2799.4521484,0.0,0.0,0.0,-0.555,-199800.0,0.0,2.0,-2.3,63.7000008,-31.9227295,0.0,15.0,40.9634895,0.0,0.0,0.0,0.0,0.0,0.0,0.0,0.0,0.0,0.0,0.0,0.0,0.0,0.0,0.0,0.0,0.0,0.0,0.0,0.0,3.0,1.0,1.0
1720610117,50.0,0.0,0.05,0.0,0.0,0.0,0.0,0.0,2799.4462891,2799.4462891,0.0,0.0,0.0,-0.555,-199800.0,0.0,-2.7,-1.4,63.2000008,-31.9227295,0.0,15.0,40.9634895,0.0,0.0,0.0,0.0,0.0,0.0,0.0,0.0,0.0,0.0,0.0,0.0,0.0,0.0,0.0,0.0,0.0,0.0,0.0,0.0,3.0,1.0,1.0
1720610118,50.0,0.0,0.05,0.0,0.0,0.0,0.0,0.0,2799.4472656,2799.4472656,0.0,0.0,0.0,-0.555,-199800.0,0.0,-0.9,-2.0,64.0999985,-31.9227295,0.0,15.1000004,40.9748726,0.0,0.0,0.0,0.0,0.0,0.0,0.0,0.0,0.0,0.0,0.0,0.0,0.0,0.0,0.0,0.0,0.0,0.0,0.0,0.0,3.0,1.0,1.0
1720610119,50.0,0.0,0.05,0.0,0.0,0.0,0.0,0.0,2799.4467773,2799.4467773,0.0,0.0,0.0,-0.555,-199800.0,0.0,2.5,-1.5,64.6999969,-31.9227295,0.0,15.1000004,40.9634895,0.0,0.0,0.0,0.0,0.0,0.0,0.0,0.0,0.0,0.0,0.0,0.0,0.0,0.0,0.0,0.0,0.0,0.0,0.0,0.0,3.0,1.0,1.0
1720610120,50.0,0.0,0.05,0.0,0.0,0.0,0.0,0.0,2799.4467773,2799.4467773,0.0,0.0,0.0,-0.555,-199800.0,0.0,-3.5,-7.1999998,64.4000015,-32.6289062,0.0,15.1000004,40.9634895,0.0,0.0,0.0,0.0,0.0,0.0,0.0,0.0,0.0,0.0,0.0,0.0,0.0,0.0,0.0,0.0,0.0,0.0,0.0,0.0,3.0,1.0,1.0
1720610121,50.0,0.0,0.05,0.0,0.0,0.0,0.0,0.0,2799.4467773,2799.4467773,0.0,0.0,0.0,-0.555,-199800.0,0.0,-1.8,-6.9000001,60.0,-40.9281006,0.0,15.1000004,40.9521103,0.0,0.0,0.0,0.0,0.0,0.0,0.0,0.0,0.0,0.0,0.0,0.0,0.0,0.0,0.0,0.0,0.0,0.0,0.0,0.0,3.0,1.0,1.0
1720610122,50.0,0.0,0.05,0.0,0.0,0.0,0.0,0.0,2799.4467773,2799.4467773,0.0,0.0,0.0,-0.555,-199800.0,0.0,-1.6,-3.5999999,59.7000008,-32.6289062,0.0,15.1000004,40.9521103,0.0,0.0,0.0,0.0,0.0,0.0,0.0,0.0,0.0,0.0,0.0,0.0,0.0,0.0,0.0,0.0,0.0,0.0,0.0,0.0,3.0,1.0,1.0
1720610123,50.0,0.0,0.05,0.0,0.0,0.0,0.0,0.0,2799.4467773,2799.4467773,0.0,0.0,0.0,-0.555,-199800.0,0.0,-0.4,-3.0,62.7999992,-31.9227295,0.0,15.1000004,40.9634895,0.0,0.0,0.0,0.0,0.0,0.0,0.0,0.0,0.0,0.0,0.0,0.0,0.0,0.0,0.0,0.0,0.0,0.0,0.0,0.0,3.0,1.0,1.0
1720610124,50.0,0.0,0.05,0.0,0.0,0.0,0.0,0.0,2799.4470215,2799.4470215,0.0,0.0,0.0,-0.555,-199800.0,0.0,-4.4000001,-2.3,54.2000008,-31.1578369,0.0,15.1000004,40.9748726,0.0,0.0,0.0,0.0,0.0,0.0,0.0,0.0,0.0,0.0,0.0,0.0,0.0,0.0,0.0,0.0,0.0,0.0,0.0,0.0,3.0,1.0,1.0
1720610125,50.0,0.0,0.05,0.0,0.0,0.0,0.0,0.0,2799.4467773,2799.4467773,0.0,0.0,0.0,-0.555,-199800.0,0.0,-0.1,-2.0,39.5999985,-31.9227295,0.0,15.1000004,40.9976387,0.0,0.0,0.0,0.0,0.0,0.0,0.0,0.0,0.0,0.0,0.0,0.0,0.0,0.0,0.0,0.0,0.0,0.0,0.0,0.0,3.0,1.0,1.0
1720610126,50.0,0.0,0.05,0.0,0.0,0.0,0.0,0.0,2799.4467773,2799.4467773,0.0,0.0,0.0,-0.555,-199800.0,0.0,-0.7,-2.5,29.1000004,-31.9227295,0.0,15.1000004,40.9634895,0.0,0.0,0.0,0.0,0.0,0.0,0.0,0.0,0.0,0.0,0.0,0.0,0.0,0.0,0.0,0.0,0.0,0.0,0.0,0.0,3.0,1.0,1.0
1720610127,50.0,0.0,0.05,0.0,0.0,0.0,0.0,0.0,2799.4521484,2799.4521484,0.0,0.0,0.0,-0.555,-199800.0,0.0,-1.0,-3.0,14.0,-31.1578369,0.0,15.1000004,40.9521103,0.0,0.0,0.0,0.0,0.0,0.0,0.0,0.0,0.0,0.0,0.0,0.0,0.0,0.0,0.0,0.0,0.0,0.0,0.0,0.0,3.0,1.0,1.0
1720610128,50.0,0.0,0.05,0.0,0.0,0.0,0.0,0.0,2799.4467773,2799.4467773,0.0,0.0,0.0,-0.555,-199800.0,0.0,-1.0,1.2,12.3000002,-30.7106934,0.0,15.1000004,40.9634895,0.0,0.0,0.0,0.0,0.0,0.0,0.0,0.0,0.0,0.0,0.0,0.0,0.0,0.0,0.0,0.0,0.0,0.0,0.0,0.0,3.0,1.0,1.0
1720610129,50.0,0.0,0.05,0.0,0.0,0.0,0.0,0.0,2799.4467773,2799.4467773,0.0,0.0,0.0,-0.555,-199800.0,0.0,-1.5,-0.8,15.6999998,-30.7106934,0.0,15.1000004,40.9634895,0.0,0.0,0.0,0.0,0.0,0.0,0.0,0.0,0.0,0.0,0.0,0.0,0.0,0.0,0.0,0.0,0.0,0.0,0.0,0.0,3.0,1.0,1.0
1720610130,50.0,0.0,0.05,0.0,0.0,0.0,0.0,0.0,2799.4467773,2799.4467773,0.0,0.0,0.0,-0.555,-199800.0,0.0,-2.5,1.4,14.5,-31.9227295,0.0,15.1000004,40.9862556,0.0,0.0,0.0,0.0,0.0,0.0,0.0,0.0,0.0,0.0,0.0,0.0,0.0,0.0,0.0,0.0,0.0,0.0,0.0,0.0,3.0,0.0,1.0
1720610131,50.0,0.0,0.05,0.0,0.0,0.0,0.0,0.0,2799.4467773,2799.4467773,0.0,0.0,0.0,-0.555,-199800.0,0.0,-0.2,-0.6,15.8000002,-40.9281006,0.0,15.1000004,40.9976387,0.0,0.0,0.0,0.0,0.0,0.0,0.0,0.0,0.0,0.0,0.0,0.0,0.0,0.0,0.0,0.0,0.0,0.0,0.0,0.0,3.0,1.0,1.0
1720610132,50.0,0.0,0.05,0.0,0.0,0.0,0.0,0.0,2799.4523926,2799.4523926,0.0,0.0,0.0,-0.555,-199800.0,0.0,-1.3,-5.5999999,15.6000004,-32.8525391,0.0,15.1000004,40.9862556,0.0,0.0,0.0,0.0,0.0,0.0,0.0,0.0,0.0,0.0,0.0,0.0,0.0,0.0,0.0,0.0,0.0,0.0,0.0,0.0,3.0,1.0,1.0
1720610133,50.0,0.0,0.05,0.0,0.0,0.0,0.0,0.0,2799.4523926,2799.4523926,0.0,0.0,0.0,-0.555,-199800.0,0.0,-1.3,1.9,16.7999992,-30.7106934,0.0,15.1000004,40.9634895,0.0,0.0,0.0,0.0,0.0,0.0,0.0,0.0,0.0,0.0,0.0,0.0,0.0,0.0,0.0,0.0,0.0,0.0,0.0,0.0,3.0,1.0,1.0
1720610134,50.0,0.0,0.05,0.0,0.0,0.0,0.0,0.0,2799.4521484,2799.4521484,0.0,0.0,0.0,-0.555,-199800.0,0.0,-0.7,0.2,20.2000008,-30.7106934,0.0,15.1000004,40.9634895,0.0,0.0,0.0,0.0,0.0,0.0,0.0,0.0,0.0,0.0,0.0,0.0,0.0,0.0,0.0,0.0,0.0,0.0,0.0,0.0,3.0,1.0,1.0
1720610135,50.0,0.0,0.05,0.0,0.0,0.0,0.0,0.0,2799.4523926,2799.4523926,0.0,0.0,0.0,-0.555,-199800.0,0.0,-0.7,-0.6,19.5,-30.7106934,0.0,15.1000004,40.9748726,0.0,0.0,0.0,0.0,0.0,0.0,0.0,0.0,0.0,0.0,0.0,0.0,0.0,0.0,0.0,0.0,0.0,0.0,0.0,0.0,3.0,1.0,1.0
1720610136,50.0,0.0,0.05,0.0,0.0,0.0,0.0,0.0,2799.4521484,2799.4521484,0.0,0.0,0.0,-0.555,-199800.0,0.0,0.8,0.4,12.1999998,-30.7106934,0.0,15.1000004,40.9862556,0.0,0.0,0.0,0.0,0.0,0.0,0.0,0.0,0.0,0.0,0.0,0.0,0.0,0.0,0.0,0.0,0.0,0.0,0.0,0.0,3.0,1.0,1.0
1720610137,50.0,0.0,0.05,0.0,0.0,0.0,0.0,0.0,2799.4523926,2799.4523926,0.0,0.0,0.0,-0.555,-199800.0,0.0,-0.2,-1.3,9.5,-30.7106934,0.0,15.1000004,40.9976387,0.0,0.0,0.0,0.0,0.0,0.0,0.0,0.0,0.0,0.0,0.0,0.0,0.0,0.0,0.0,0.0,0.0,0.0,0.0,0.0,3.0,1.0,1.0
1720610138,50.0,0.0,0.05,0.0,0.0,0.0,0.0,0.0,2799.4523926,2799.4523926,0.0,0.0,0.0,-0.555,-199800.0,0.0,1.6,0.0,7.1999998,-32.8525391,0.0,15.1000004,40.9862556,0.0,0.0,0.0,0.0,0.0,0.0,0.0,0.0,0.0,0.0,0.0,0.0,0.0,0.0,0.0,0.0,0.0,0.0,0.0,0.0,3.0,1.0,1.0
1720610139,50.0,0.0,0.05,0.0,0.0,0.0,0.0,0.0,2799.4467773,2799.4467773,0.0,0.0,0.0,-0.555,-199800.0,0.0,-0.9,-0.9,6.3000002,-32.8525391,0.0,15.1000004,40.9748726,0.0,0.0,0.0,0.0,0.0,0.0,0.0,0.0,0.0,0.0,0.0,0.0,0.0,0.0,0.0,0.0,0.0,0.0,0.0,0.0,3.0,1.0,1.0
1720610140,50.0,0.0,0.05,0.0,0.0,0.0,0.0,0.0,2799.4467773,2799.4467773,0.0,0.0,0.0,-0.555,-199800.0,0.0,-0.3,-0.5,9.1000004,-32.8525391,0.0,15.1000004,40.9634895,0.0,0.0,0.0,0.0,0.0,0.0,0.0,0.0,0.0,0.0,0.0,0.0,0.0,0.0,0.0,0.0,0.0,0.0,0.0,0.0,3.0,1.0,1.0
1720610141,50.0,0.0,0.05,0.0,0.0,0.0,0.0,0.0,2799.4467773,2799.4467773,0.0,0.0,0.0,-0.555,-199800.0,0.0,0.8,2.5999999,5.5,-32.8525391,0.0,15.1000004,40.9634895,0.0,0.0,0.0,0.0,0.0,0.0,0.0,0.0,0.0,0.0,0.0,0.0,0.0,0.0,0.0,0.0,0.0,0.0,0.0,0.0,3.0,1.0,1.0
1720610142,50.0,0.0,0.05,0.0,0.0,0.0,0.0,0.0,2799.4467773,2799.4467773,0.0,0.0,0.0,-0.555,-199800.0,0.0,-0.5,-2.5999999,2.8,-32.8525391,0.0,15.1000004,40.9748726,0.0,0.0,0.0,0.0,0.0,0.0,0.0,0.0,0.0,0.0,0.0,0.0,0.0,0.0,0.0,0.0,0.0,0.0,0.0,0.0,3.0,1.0,1.0
1720610143,50.0,0.0,0.05,0.0,0.0,0.0,0.0,0.0,2799.4470215,2799.4470215,0.0,0.0,0.0,-0.555,-199800.0,0.0,-0.5,3.0999999,8.8999996,-47.9364014,0.0,15.1000004,40.9862556,0.0,0.0,0.0,0.0,0.0,0.0,0.0,0.0,0.0,0.0,0.0,0.0,0.0,0.0,0.0,0.0,0.0,0.0,0.0,0.0,3.0,1.0,1.0
1720610144,50.0,0.0,0.05,0.0,0.0,0.0,0.0,0.0,2799.4467773,2799.4467773,0.0,0.0,0.0,-0.555,-199800.0,0.0,0.6,2.9000001,7.5999999,-47.9364014,0.0,15.1000004,40.9976387,0.0,0.0,0.0,0.0,0.0,0.0,0.0,0.0,0.0,0.0,0.0,0.0,0.0,0.0,0.0,0.0,0.0,0.0,0.0,0.0,3.0,1.0,1.0
1720610145,50.0,0.0,0.05,0.0,0.0,0.0,0.0,0.0,2799.4467773,2799.4467773,0.0,0.0,0.0,-0.555,-199800.0,0.0,0.0,1.6,5.0,-32.8525391,0.0,15.1000004,40.9748726,0.0,0.0,0.0,0.0,0.0,0.0,0.0,0.0,0.0,0.0,0.0,0.0,0.0,0.0,0.0,0.0,0.0,0.0,0.0,0.0,3.0,1.0,1.0
1720610146,50.0,0.0,0.05,0.0,0.0,0.0,0.0,0.0,0.0,2799.4467773,0.0,0.0,0.0,-0.555,-199800.0,0.0,1.3,1.7,4.6999998,-27.8516846,0.0,15.1000004,40.9634895,0.0,0.0,0.0,0.0,0.0,0.0,0.0,0.0,0.0,0.0,0.0,0.0,0.0,0.0,0.0,0.0,0.0,0.0,0.0,0.0,3.0,1.0,1.0
1720610147,50.0,0.0,0.05,0.0,0.0,0.0,0.0,0.0,2799.4467773,2799.4467773,0.0,0.0,0.0,-0.555,-199800.0,0.0,0.0,1.9,5.5,-27.8516846,0.0,15.1000004,40.9634895,0.0,0.0,0.0,0.0,0.0,0.0,0.0,0.0,0.0,0.0,0.0,0.0,0.0,0.0,0.0,0.0,0.0,0.0,0.0,0.0,3.0,1.0,1.0
1720610148,50.0,0.0,0.05,0.0,0.0,0.0,0.0,0.0,2799.4467773,2799.4467773,0.0,0.0,0.0,-0.555,-199800.0,0.0,0.5,3.7,5.8000002,-27.8516846,0.0,15.1000004,40.9748726,0.0,0.0,0.0,0.0,0.0,0.0,0.0,0.0,0.0,0.0,0.0,0.0,0.0,0.0,0.0,0.0,0.0,0.0,0.0,0.0,3.0,1.0,1.0
1720610149,50.0,0.0,0.05,0.0,0.0,0.0,0.0,0.0,2799.4467773,2799.4467773,0.0,0.0,0.0,-0.555,-199800.0,0.0,-0.6,-0.3,2.2,-27.8516846,0.0,15.1000004,40.9862556,0.0,0.0,0.0,0.0,0.0,0.0,0.0,0.0,0.0,0.0,0.0,0.0,0.0,0.0,0.0,0.0,0.0,0.0,0.0,0.0,3.0,1.0,1.0
1720610150,50.0,0.0,0.05,0.0,0.0,0.0,0.0,0.0,2799.4467773,2799.4467773,0.0,0.0,0.0,-0.555,-199800.0,0.0,0.7,0.7,-0.2,-27.0635986,0.0,15.1000004,40.9976387,0.0,0.0,0.0,0.0,0.0,0.0,0.0,0.0,0.0,0.0,0.0,0.0,0.0,0.0,0.0,0.0,0.0,0.0,0.0,0.0,3.0,1.0,1.0
1720610151,50.0,0.0,0.05,0.0,0.0,0.0,0.0,0.0,2799.4467773,2799.4467773,0.0,0.0,0.0,-0.555,-199800.0,0.0,0.1,2.5,1.9,-23.3939209,0.0,15.1000004,40.9862556,0.0,0.0,0.0,0.0,0.0,0.0,0.0,0.0,0.0,0.0,0.0,0.0,0.0,0.0,0.0,0.0,0.0,0.0,0.0,0.0,3.0,1.0,1.0
1720610152,50.0,0.0,0.05,0.0,0.0,0.0,0.0,0.0,2799.4523926,2799.4523926,0.0,0.0,0.0,-0.555,-199800.0,0.0,0.4,1.7,5.0,-27.0635986,0.0,15.1000004,40.9634895,0.0,0.0,0.0,0.0,0.0,0.0,0.0,0.0,0.0,0.0,0.0,0.0,0.0,0.0,0.0,0.0,0.0,0.0,0.0,0.0,3.0,1.0,1.0
1720610153,50.0,0.0,0.05,0.0,0.0,0.0,0.0,0.0,2799.4523926,2799.4523926,0.0,0.0,0.0,-0.555,-199800.0,0.0,1.7,3.0,2.0999999,-23.3939209,0.0,15.1000004,40.9634895,0.0,0.0,0.0,0.0,0.0,0.0,0.0,0.0,0.0,0.0,0.0,0.0,0.0,0.0,0.0,0.0,0.0,0.0,0.0,0.0,3.0,1.0,1.0
1720610154,50.0,0.0,0.05,0.0,0.0,0.0,0.0,0.0,2799.4521484,2799.4521484,0.0,0.0,0.0,-0.555,-199800.0,0.0,0.8,-1.9,2.0,-23.3939209,0.0,15.1000004,40.9748726,0.0,0.0,0.0,0.0,0.0,0.0,0.0,0.0,0.0,0.0,0.0,0.0,0.0,0.0,0.0,0.0,0.0,0.0,0.0,0.0,3.0,1.0,1.0
1720610155,50.0,0.0,0.05,0.0,0.0,0.0,0.0,0.0,2799.4521484,2799.4521484,0.0,0.0,0.0,-0.555,-199800.0,0.0,1.1,-1.2,13.6999998,-18.4674072,0.0,15.1000004,40.9862556,0.0,0.0,0.0,0.0,0.0,0.0,0.0,0.0,0.0,0.0,0.0,0.0,0.0,0.0,0.0,0.0,0.0,0.0,0.0,0.0,3.0,1.0,1.0
1720610156,50.0,0.0,0.05,0.0,0.0,0.0,0.0,0.0,2799.4523926,2799.4523926,0.0,0.0,0.0,-0.555,-199800.0,0.0,-0.8,2.5999999,13.6000004,-18.4674072,0.0,15.1000004,40.9976387,0.0,0.0,0.0,0.0,0.0,0.0,0.0,0.0,0.0,0.0,0.0,0.0,0.0,0.0,0.0,0.0,0.0,0.0,0.0,0.0,3.0,1.0,1.0
1720610157,50.0,0.0,0.05,0.0,0.0,0.0,0.0,0.0,2799.4523926,2799.4523926,0.0,0.0,0.0,-0.555,-199800.0,0.0,-0.3,1.2,10.8999996,-18.4674072,0.0,15.1000004,40.9976387,0.0,0.0,0.0,0.0,0.0,0.0,0.0,0.0,0.0,0.0,0.0,0.0,0.0,0.0,0.0,0.0,0.0,0.0,0.0,0.0,3.0,1.0,1.0
1720610158,50.0,0.0,0.05,0.0,0.0,0.0,0.0,0.0,2799.4521484,2799.4521484,0.0,0.0,0.0,-0.555,-199800.0,0.0,-1.2,0.0,11.3000002,-18.4674072,0.0,15.1000004,40.9862556,0.0,0.0,0.0,0.0,0.0,0.0,0.0,0.0,0.0,0.0,0.0,0.0,0.0,0.0,0.0,0.0,0.0,0.0,0.0,0.0,3.0,1.0,1.0
1720610159,50.0,0.0,0.05,0.0,0.0,0.0,0.0,0.0,2799.4521484,2799.4521484,0.0,0.0,0.0,-0.555,-199800.0,0.0,0.1,0.1,6.5999999,-18.4674072,0.0,15.1000004,40.9748726,0.0,0.0,0.0,0.0,0.0,0.0,0.0,0.0,0.0,0.0,0.0,0.0,0.0,0.0,0.0,0.0,0.0,0.0,0.0,0.0,3.0,1.0,1.0
1720610160,50.0,0.0,0.05,0.0,0.0,0.0,0.0,0.0,2799.4467773,2799.4467773,0.0,0.0,0.0,-0.555,-199800.0,0.0,1.5,-0.7,6.5,-14.4475098,0.0,15.1000004,40.9748726,0.0,0.0,0.0,0.0,0.0,0.0,0.0,0.0,0.0,0.0,0.0,0.0,0.0,0.0,0.0,0.0,0.0,0.0,0.0,0.0,3.0,1.0,1.0
1720610161,50.0,0.0,0.05,0.0,0.0,0.0,0.0,0.0,2799.4467773,2799.4467773,0.0,0.0,0.0,-0.555,-199800.0,0.0,0.9,-0.6,8.8999996,-18.4674072,0.0,15.1000004,40.9862556,0.0,0.0,0.0,0.0,0.0,0.0,0.0,0.0,0.0,0.0,0.0,0.0,0.0,0.0,0.0,0.0,0.0,0.0,0.0,0.0,3.0,1.0,1.0
1720610162,50.0,0.0,0.05,0.0,0.0,0.0,0.0,0.0,2799.4467773,2799.4467773,0.0,0.0,0.0,-0.555,-199800.0,0.0,2.2,-2.5999999,14.8999996,-14.4475098,0.0,15.1000004,40.9862556,0.0,0.0,0.0,0.0,0.0,0.0,0.0,0.0,0.0,0.0,0.0,0.0,0.0,0.0,0.0,0.0,0.0,0.0,0.0,0.0,3.0,1.0,1.0
1720610163,50.0,0.0,0.05,0.0,0.0,0.0,0.0,0.0,2799.4470215,2799.4470215,0.0,0.0,0.0,-0.555,-199800.0,0.0,-2.3,-0.4,22.8999996,-5.4718018,0.0,15.1000004,40.9976387,0.0,0.0,0.0,0.0,0.0,0.0,0.0,0.0,0.0,0.0,0.0,0.0,0.0,0.0,0.0,0.0,0.0,0.0,0.0,0.0,3.0,1.0,1.0
1720610164,50.0,0.0,0.05,0.0,0.0,0.0,0.0,0.0,2799.4467773,2799.4467773,0.0,0.0,0.0,-0.555,-199800.0,0.0,-1.1,-1.1,16.0,-7.5625,0.0,15.1000004,40.9862556,0.0,0.0,0.0,0.0,0.0,0.0,0.0,0.0,0.0,0.0,0.0,0.0,0.0,0.0,0.0,0.0,0.0,0.0,0.0,0.0,3.0,1.0,1.0
1720610165,50.0,0.0,0.05,0.0,0.0,0.0,0.0,0.0,2799.4467773,2799.4467773,0.0,0.0,0.0,-0.555,-199800.0,0.0,-0.7,-3.9000001,15.1999998,-7.5625,0.0,15.1000004,40.9748726,0.0,0.0,0.0,0.0,0.0,0.0,0.0,0.0,0.0,0.0,0.0,0.0,0.0,0.0,0.0,0.0,0.0,0.0,0.0,0.0,3.0,1.0,1.0
1720610166,50.0,0.0,0.05,0.0,0.0,0.0,0.0,0.0,2799.4465332,2799.4465332,0.0,0.0,0.0,-0.555,-199800.0,0.0,1.7,-0.5,13.3000002,-7.5625,0.0,15.1000004,40.9748726,0.0,0.0,0.0,0.0,0.0,0.0,0.0,0.0,0.0,0.0,0.0,0.0,0.0,0.0,0.0,0.0,0.0,0.0,0.0,0.0,3.0,1.0,1.0
1720610167,50.0,0.0,0.05,0.0,0.0,0.0,0.0,0.0,2799.4467773,2799.4467773,0.0,0.0,0.0,-0.555,-199800.0,0.0,1.3,-2.0999999,17.1000004,-7.5625,0.0,15.1000004,40.9748726,0.0,0.0,0.0,0.0,0.0,0.0,0.0,0.0,0.0,0.0,0.0,0.0,0.0,0.0,0.0,0.0,0.0,0.0,0.0,0.0,3.0,1.0,1.0
1720610168,50.0,0.0,0.05,0.0,0.0,0.0,0.0,0.0,2799.4465332,2799.4465332,0.0,0.0,0.0,-0.555,-199800.0,0.0,2.2,-5.0999999,16.1000004,-5.4718018,0.0,15.1000004,40.9862556,0.0,0.0,0.0,0.0,0.0,0.0,0.0,0.0,0.0,0.0,0.0,0.0,0.0,0.0,0.0,0.0,0.0,0.0,0.0,0.0,3.0,1.0,1.0
1720610169,50.0,0.0,0.05,0.0,0.0,0.0,0.0,0.0,2799.4470215,2799.4470215,0.0,0.0,0.0,-0.555,-199800.0,0.0,1.2,-2.7,14.5,-5.4718018,0.0,15.1000004,40.9976387,0.0,0.0,0.0,0.0,0.0,0.0,0.0,0.0,0.0,0.0,0.0,0.0,0.0,0.0,0.0,0.0,0.0,0.0,0.0,0.0,3.0,1.0,1.0
1720610170,50.0,0.0,0.05,0.0,0.0,0.0,0.0,0.0,2799.4467773,2799.4467773,0.0,0.0,0.0,-0.555,-199800.0,0.0,2.3,-2.0999999,11.1000004,-5.4718018,0.0,15.1000004,40.9862556,0.0,0.0,0.0,0.0,0.0,0.0,0.0,0.0,0.0,0.0,0.0,0.0,0.0,0.0,0.0,0.0,0.0,0.0,0.0,0.0,3.0,1.0,1.0
1720610171,50.0,0.0,0.05,0.0,0.0,0.0,0.0,0.0,2799.4470215,2799.4470215,0.0,0.0,0.0,-0.555,-199800.0,0.0,1.6,-4.3000002,8.3000002,-5.4718018,0.0,15.1000004,40.9748726,0.0,0.0,0.0,0.0,0.0,0.0,0.0,0.0,0.0,0.0,0.0,0.0,0.0,0.0,0.0,0.0,0.0,0.0,0.0,0.0,3.0,1.0,1.0
1720610172,50.0,0.0,0.05,0.0,0.0,0.0,0.0,0.0,2799.4467773,2799.4467773,0.0,0.0,0.0,-0.555,-199800.0,0.0,-0.7,-8.8999996,6.5999999,-7.5625,0.0,15.1000004,40.9634895,0.0,0.0,0.0,0.0,0.0,0.0,0.0,0.0,0.0,0.0,0.0,0.0,0.0,0.0,0.0,0.0,0.0,0.0,0.0,0.0,3.0,1.0,1.0
1720610173,50.0,0.0,0.05,0.0,0.0,0.0,0.0,0.0,2799.4519043,2799.4519043,0.0,0.0,0.0,-0.555,-199800.0,0.0,-0.4,-7.3000002,7.5,-3.5693359,0.0,15.1000004,40.9634895,0.0,0.0,0.0,0.0,0.0,0.0,0.0,0.0,0.0,0.0,0.0,0.0,0.0,0.0,0.0,0.0,0.0,0.0,0.0,0.0,3.0,1.0,1.0
1720610174,50.0,0.0,0.05,0.0,0.0,0.0,0.0,0.0,2799.4523926,2799.4523926,0.0,0.0,0.0,-0.555,-199800.0,0.0,1.3,0.8,16.5,-7.5625,0.0,15.1000004,40.9748726,0.0,0.0,0.0,0.0,0.0,0.0,0.0,0.0,0.0,0.0,0.0,0.0,0.0,0.0,0.0,0.0,0.0,0.0,0.0,0.0,3.0,1.0,1.0
1720610175,50.0,0.0,0.05,0.0,0.0,0.0,0.0,0.0,2799.4526367,2799.4526367,0.0,0.0,0.0,-0.555,-199800.0,0.0,5.8000002,-0.7,20.7000008,-22.9941406,0.0,15.1000004,40.9862556,0.0,0.0,0.0,0.0,0.0,0.0,0.0,0.0,0.0,0.0,0.0,0.0,0.0,0.0,0.0,0.0,0.0,0.0,0.0,0.0,3.0,1.0,1.0
1720610176,50.0,0.0,0.05,0.0,0.0,0.0,0.0,0.0,2799.4521484,2799.4521484,0.0,0.0,0.0,-0.555,-199800.0,0.0,6.9000001,-10.6000004,22.2000008,-22.9941406,0.0,15.1000004,41.0090179,0.0,0.0,0.0,0.0,0.0,0.0,0.0,0.0,0.0,0.0,0.0,0.0,0.0,0.0,0.0,0.0,0.0,0.0,0.0,0.0,3.0,1.0,1.0
1720610177,50.0,0.0,0.05,0.0,0.0,0.0,0.0,0.0,2799.4526367,2799.4526367,0.0,0.0,0.0,-0.555,-199800.0,0.0,-1.3,-12.1000004,23.1000004,-22.9941406,0.0,15.1000004,40.9748726,0.0,0.0,0.0,0.0,0.0,0.0,0.0,0.0,0.0,0.0,0.0,0.0,0.0,0.0,0.0,0.0,0.0,0.0,0.0,0.0,3.0,1.0,1.0
1720610178,50.0,0.0,0.05,0.0,0.0,0.0,0.0,0.0,2799.4467773,2799.4467773,0.0,0.0,0.0,-0.555,-199800.0,0.0,-10.3000002,-5.0999999,22.7000008,-22.9941406,0.0,15.1000004,40.9634895,0.0,0.0,0.0,0.0,0.0,0.0,0.0,0.0,0.0,0.0,0.0,0.0,0.0,0.0,0.0,0.0,0.0,0.0,0.0,0.0,3.0,1.0,1.0
1720610179,50.0,0.0108373,0.0499,0.0,0.0006188,0.0,0.0006188,0.0,2799.4467773,2799.4467773,0.0,0.0,0.0,-0.555,-199800.0,0.0,-9.3999996,-13.3000002,22.3999996,-22.9941406,0.1,15.1000004,40.9634895,0.0,0.0,0.0,0.0,0.0,0.0,0.0,0.0,0.0,0.0,0.0,0.0,0.0,0.0,0.0,0.0,0.0,0.0,0.0,0.0,3.0,1.0,1.0
1720610180,50.0,0.0210518,0.0499,0.0,0.0011668,0.0,0.0011668,0.0,2799.4467773,2799.4467773,0.0,0.0,0.0,-0.555,-199800.0,0.0,-1.3,-17.8999996,20.0,-6.8342285,0.1,15.1000004,40.9748726,0.0,0.0,0.0,0.0,0.0,0.0,0.0,0.0,0.0,0.0,0.0,0.0,0.0,0.0,0.0,0.0,0.0,0.0,0.0,0.0,3.0,1.0,1.0
1720610181,50.0,0.030648,0.0499,0.0,0.0016482,0.0,0.0016482,0.0,2799.4467773,2799.4467773,0.0,0.0,0.0,-0.555,-199800.0,0.0,-2.7,-17.7000008,18.1000004,-22.9941406,0.1,15.0,40.9862556,0.0,0.0,0.0,0.0,0.0,0.0,0.0,0.0,0.0,0.0,0.0,0.0,0.0,0.0,0.0,0.0,0.0,0.0,0.0,0.0,3.0,0.0,1.0
1720610182,50.0,0.0396334,0.0499,0.0,0.0020671,0.0,0.0020671,0.0,2799.4470215,2799.4470215,0.0,0.0,0.0,-0.555,-199800.0,0.0,-2.5,-24.5,15.1000004,-6.8342285,0.1,14.8000002,41.0090179,0.0,0.0,0.0,0.0,0.0,0.0,0.0,0.0,0.0,0.0,0.0,0.0,0.0,0.0,0.0,0.0,0.0,0.0,0.0,0.0,3.0,1.0,1.0
1720610183,50.0,0.0480186,0.0499,0.0,0.0024279,0.0,0.0024279,0.0,2799.4467773,2799.4467773,0.0,0.0,0.0,-0.555,-199800.0,0.0,-5.5999999,-16.7999992,10.5,-6.8342285,0.1,14.6999998,40.9862556,0.0,0.0,0.0,0.0,0.0,0.0,0.0,0.0,0.0,0.0,0.0,0.0,0.0,0.0,0.0,0.0,0.0,0.0,0.0,0.0,3.0,1.0,1.0
1720610184,50.0,0.0449795,0.05,0.0,0.0021157,0.0,0.0021157,0.0,2799.4467773,2799.4467773,0.0,0.0,0.0,-0.555,-199800.0,0.0,-8.3000002,-3.0999999,7.9000001,-6.8342285,0.0,14.6000004,40.9634895,0.0,0.0,0.0,0.0,0.0,0.0,0.0,0.0,0.0,0.0,0.0,0.0,0.0,0.0,0.0,0.0,0.0,0.0,0.0,0.0,3.0,1.0,1.0
1720610185,50.0,0.0419914,0.05,0.0,0.0018243,0.0,0.0018243,0.0,2799.4467773,2799.4467773,0.0,0.0,0.0,-0.555,-199800.0,0.0,-4.8000002,-2.5999999,6.0999999,-3.3461914,0.0,14.3999996,40.9634895,0.0,0.0,0.0,0.0,0.0,0.0,0.0,0.0,0.0,0.0,0.0,0.0,0.0,0.0,0.0,0.0,0.0,0.0,0.0,0.0,3.0,1.0,1.0
1720610186,50.0,0.0390673,0.05,0.0,0.0015531,0.0,0.0015531,0.0,2799.4467773,2799.4467773,0.0,0.0,0.0,-0.555,-199800.0,0.0,-6.5999999,-8.1000004,4.3000002,-3.3461914,0.0,14.3000002,40.9748726,0.0,0.0,0.0,0.0,0.0,0.0,0.0,0.0,0.0,0.0,0.0,0.0,0.0,0.0,0.0,0.0,0.0,0.0,0.0,0.0,3.0,1.0,1.0
1720610187,50.0,0.0362183,0.05,0.0,0.0013018,0.0,0.0013018,0.0,2799.4467773,2799.4467773,0.0,0.0,0.0,-0.555,-199800.0,0.0,-8.3999996,-10.1000004,1.2,2.2185059,0.0,14.1999998,40.9862556,0.0,0.0,0.0,0.0,0.0,0.0,0.0,0.0,0.0,0.0,0.0,0.0,0.0,0.0,0.0,0.0,0.0,0.0,0.0,0.0,3.0,1.0,1.0
1720610188,50.0,0.0334539,0.05,0.0,0.0010696,0.0,0.0010696,0.0,2799.3803711,2799.3803711,0.0,0.0,0.0,-0.555,-199800.0,0.0,-13.1000004,-10.5,-3.0,2.2185059,0.0,14.1000004,40.9976387,0.0,0.0,0.0,0.0,0.0,0.0,0.0,0.0,0.0,0.0,0.0,0.0,0.0,0.0,0.0,0.0,0.0,0.0,0.0,0.0,3.0,1.0,1.0
1720610189,50.0,0.030782,0.05,0.0,0.0008559,0.0,0.0008559,0.0,2799.4467773,2799.4467773,0.0,0.0,0.0,-0.555,-199800.0,0.0,-16.6000004,-7.8000002,-7.6999998,37.8876953,0.0,14.0,40.9976387,0.0,0.0,0.0,0.0,0.0,0.0,0.0,0.0,0.0,0.0,0.0,0.0,0.0,0.0,0.0,0.0,0.0,0.0,0.0,0.0,3.0,1.0,1.0
1720610190,50.0,0.0282093,0.05,0.0,0.0006601,0.0,0.0006601,0.0,2799.4467773,2799.4467773,0.0,0.0,0.0,-0.555,-199800.0,0.0,-5.3000002,0.9,-10.8999996,37.8876953,0.0,13.8999996,40.9976387,0.0,0.0,0.0,0.0,0.0,0.0,0.0,0.0,0.0,0.0,0.0,0.0,0.0,0.0,0.0,0.0,0.0,0.0,0.0,0.0,3.0,1.0,1.0
1720610191,50.0,0.0257407,0.05,0.0,0.0004815,0.0,0.0004815,0.0,2799.4467773,2799.4467773,0.0,0.0,0.0,-0.555,-199800.0,0.0,-2.5999999,4.0,-10.5,43.4117432,0.0,13.8999996,40.9862556,0.0,0.0,0.0,0.0,0.0,0.0,0.0,0.0,0.0,0.0,0.0,0.0,0.0,0.0,0.0,0.0,0.0,0.0,0.0,0.0,3.0,1.0,1.0
1720610192,50.0,0.0233804,0.05,0.0,0.0003192,0.0,0.0003192,0.0,2799.4465332,2799.4465332,0.0,0.0,0.0,-0.555,-199800.0,0.0,-5.8000002,-0.3,-11.6000004,43.4117432,0.0,13.8000002,40.9862556,0.0,0.0,0.0,0.0,0.0,0.0,0.0,0.0,0.0,0.0,0.0,0.0,0.0,0.0,0.0,0.0,0.0,0.0,0.0,0.0,3.0,1.0,1.0
1720610193,50.0,0.0211312,0.05,0.0,0.0001725,0.0,0.0001725,0.0,2799.4467773,2799.4467773,0.0,0.0,0.0,-0.555,-199800.0,0.0,-11.0,0.0,-14.1000004,43.4117432,0.0,13.6999998,40.9862556,0.0,0.0,0.0,0.0,0.0,0.0,0.0,0.0,0.0,0.0,0.0,0.0,0.0,0.0,0.0,0.0,0.0,0.0,0.0,0.0,3.0,1.0,1.0
1720610194,50.0,0.018995,0.05,0.0,4.07e-05,0.0,4.07e-05,0.0,2799.4519043,2799.4519043,0.0,0.0,0.0,-0.555,-199800.0,0.0,-9.3000002,-0.3,-14.6000004,53.9034424,0.0,13.6000004,40.9862556,0.0,0.0,0.0,0.0,0.0,0.0,0.0,0.0,0.0,0.0,0.0,0.0,0.0,0.0,0.0,0.0,0.0,0.0,0.0,0.0,3.0,1.0,1.0
1720610195,50.0,0.0169727,0.05,0.0,-7.71e-05,0.0,-7.71e-05,0.0,2799.4521484,2799.4521484,0.0,0.0,0.0,-0.555,-199800.0,0.0,-6.1999998,0.2,-15.6999998,66.5712891,0.0,13.6000004,40.9976387,0.0,0.0,0.0,0.0,0.0,0.0,0.0,0.0,0.0,0.0,0.0,0.0,0.0,0.0,0.0,0.0,0.0,0.0,0.0,0.0,3.0,1.0,1.0
1720610196,50.0,0.0150646,0.05,0.0,-0.0001817,0.0,-0.0001817,0.0,2799.4526367,2799.4526367,0.0,0.0,0.0,-0.555,-199800.0,0.0,-6.5,-0.1,-15.3999996,68.0428467,0.0,13.5,40.9976387,0.0,0.0,0.0,0.0,0.0,0.0,0.0,0.0,0.0,0.0,0.0,0.0,0.0,0.0,0.0,0.0,0.0,0.0,0.0,0.0,3.0,1.0,1.0
1720610197,50.0,0.01327,0.05,0.0,-0.0002738,0.0,-0.0002738,0.0,2799.4523926,2799.4523926,0.0,0.0,0.0,-0.555,-199800.0,0.0,-7.8000002,-2.4000001,-16.8999996,69.8530273,0.0,13.5,40.9748726,0.0,0.0,0.0,0.0,0.0,0.0,0.0,0.0,0.0,0.0,0.0,0.0,0.0,0.0,0.0,0.0,0.0,0.0,0.0,0.0,3.0,1.0,1.0
1720610198,50.0,0.0115878,0.05,0.0,-0.0003542,0.0,-0.0003542,0.0,2799.4521484,2799.4521484,0.0,0.0,0.0,-0.555,-199800.0,0.0,-7.5,0.9,-20.3999996,69.8530273,0.0,13.3999996,40.9748726,0.0,0.0,0.0,0.0,0.0,0.0,0.0,0.0,0.0,0.0,0.0,0.0,0.0,0.0,0.0,0.0,0.0,0.0,0.0,0.0,3.0,1.0,1.0
1720610199,50.0,0.0100162,0.05,0.0,-0.0004237,0.0,-0.0004237,0.0,2799.4526367,2799.4526367,0.0,0.0,0.0,-0.555,-199800.0,0.0,-8.3999996,2.2,-22.7000008,69.8530273,0.0,13.3999996,40.9748726,0.0,0.0,0.0,0.0,0.0,0.0,0.0,0.0,0.0,0.0,0.0,0.0,0.0,0.0,0.0,0.0,0.0,0.0,0.0,0.0,3.0,1.0,1.0
1720610200,50.0,0.0085529,0.05,0.0,-0.0004831,0.0,-0.0004831,0.0,2799.4523926,2799.4523926,0.0,0.0,0.0,-0.555,-199800.0,0.0,-4.4000001,2.5999999,-23.2000008,74.2080078,0.0,13.3000002,40.9748726,0.0,0.0,0.0,0.0,0.0,0.0,0.0,0.0,0.0,0.0,0.0,0.0,0.0,0.0,0.0,0.0,0.0,0.0,0.0,0.0,3.0,1.0,1.0
1720610201,50.0,0.0071953,0.05,0.0,-0.000533,0.0,-0.000533,0.0,2799.4519043,2799.4519043,0.0,0.0,0.0,-0.555,-199800.0,0.0,-10.1000004,-0.8,-22.1000004,74.6866455,0.0,13.3000002,40.9976387,0.0,0.0,0.0,0.0,0.0,0.0,0.0,0.0,0.0,0.0,0.0,0.0,0.0,0.0,0.0,0.0,0.0,0.0,0.0,0.0,3.0,1.0,1.0
1720610202,50.0,0.0059402,0.05,0.0,-0.0005743,0.0,-0.0005743,0.0,2799.4467773,2799.4467773,0.0,0.0,0.0,-0.555,-199800.0,0.0,-10.1000004,-3.0,-25.2000008,74.6866455,0.0,13.1999998,40.9976387,0.0,0.0,0.0,0.0,0.0,0.0,0.0,0.0,0.0,0.0,0.0,0.0,0.0,0.0,0.0,0.0,0.0,0.0,0.0,0.0,3.0,1.0,1.0
1720610203,50.0,0.0047845,0.05,0.0,-0.0006075,0.0,-0.0006075,0.0,2799.4467773,2799.4467773,0.0,0.0,0.0,-0.555,-199800.0,0.0,-7.8000002,-3.3,-29.1000004,74.6866455,0.0,13.1999998,40.9976387,0.0,0.0,0.0,0.0,0.0,0.0,0.0,0.0,0.0,0.0,0.0,0.0,0.0,0.0,0.0,0.0,0.0,0.0,0.0,0.0,3.0,1.0,1.0
1720610204,50.0,0.0037243,0.05,0.0,-0.0006333,0.0,-0.0006333,0.0,2799.4467773,2799.4467773,0.0,0.0,0.0,-0.555,-199800.0,0.0,-8.1000004,3.0,-31.7000008,74.6866455,0.0,13.1000004,40.9748726,0.0,0.0,0.0,0.0,0.0,0.0,0.0,0.0,0.0,0.0,0.0,0.0,0.0,0.0,0.0,0.0,0.0,0.0,0.0,0.0,3.0,1.0,1.0
1720610205,50.0,0.002756,0.05,0.0,-0.0006524,0.0,-0.0006524,0.0,2799.4467773,2799.4467773,0.0,0.0,0.0,-0.555,-199800.0,0.0,-5.3000002,0.8,-32.2000008,74.6866455,0.0,13.1000004,40.9634895,0.0,0.0,0.0,0.0,0.0,0.0,0.0,0.0,0.0,0.0,0.0,0.0,0.0,0.0,0.0,0.0,0.0,0.0,0.0,0.0,3.0,1.0,1.0
1720610206,50.0,0.0018756,0.05,0.0,-0.0006655,0.0,-0.0006655,0.0,2799.4467773,2799.4467773,0.0,0.0,0.0,-0.555,-199800.0,0.0,-5.5999999,0.8,-32.4000015,90.9957275,0.0,13.1000004,40.9634895,0.0,0.0,0.0,0.0,0.0,0.0,0.0,0.0,0.0,0.0,0.0,0.0,0.0,0.0,0.0,0.0,0.0,0.0,0.0,0.0,3.0,1.0,1.0
1720610207,50.0,0.001079,0.05,0.0,-0.000673,0.0,-0.000673,0.0,2799.4467773,2799.4467773,0.0,0.0,0.0,-0.555,-199800.0,0.0,-10.0,-0.1,-32.2000008,90.9957275,0.0,13.0,40.9748726,0.0,0.0,0.0,0.0,0.0,0.0,0.0,0.0,0.0,0.0,0.0,0.0,0.0,0.0,0.0,0.0,0.0,0.0,0.0,0.0,3.0,1.0,1.0
1720610208,50.0,0.000362,0.05,0.0,-0.0006755,0.0,-0.0006755,0.0,2799.4465332,2799.4465332,0.0,0.0,0.0,-0.555,-199800.0,0.0,-8.3000002,-0.2,-33.7999992,90.9957275,0.0,13.0,40.9862556,0.0,0.0,0.0,0.0,0.0,0.0,0.0,0.0,0.0,0.0,0.0,0.0,0.0,0.0,0.0,0.0,0.0,0.0,0.0,0.0,3.0,0.0,1.0
1720610209,50.0,-0.0002795,0.05,0.0,-0.0006735,0.0,-0.0006735,0.0,2799.4467773,2799.4467773,0.0,0.0,0.0,-0.555,-199800.0,0.0,-11.3999996,-0.4,-35.0,96.1246338,0.0,13.0,40.9976387,0.0,0.0,0.0,0.0,0.0,0.0,0.0,0.0,0.0,0.0,0.0,0.0,0.0,0.0,0.0,0.0,0.0,0.0,0.0,0.0,3.0,1.0,1.0
1720610210,50.0,-0.0008497,0.05,0.0,-0.0006676,0.0,-0.0006676,0.0,2799.4467773,2799.4467773,0.0,0.0,0.0,-0.555,-199800.0,0.0,-7.6999998,-1.1,-39.5999985,96.1246338,0.0,13.0,40.9862556,0.0,0.0,0.0,0.0,0.0,0.0,0.0,0.0,0.0,0.0,0.0,0.0,0.0,0.0,0.0,0.0,0.0,0.0,0.0,0.0,3.0,1.0,1.0
1720610211,50.0,-0.0013529,0.05,0.0,-0.0006582,0.0,-0.0006582,0.0,2799.4467773,2799.4467773,0.0,0.0,0.0,-0.555,-199800.0,0.0,-1.8,1.2,-43.4000015,90.9957275,0.0,12.8999996,40.9634895,0.0,0.0,0.0,0.0,0.0,0.0,0.0,0.0,0.0,0.0,0.0,0.0,0.0,0.0,0.0,0.0,0.0,0.0,0.0,0.0,3.0,1.0,1.0
1720610212,50.0,-0.0017932,0.05,0.0,-0.0006458,0.0,-0.0006458,0.0,2799.4467773,2799.4467773,0.0,0.0,0.0,-0.555,-199800.0,0.0,-3.3,-0.2,-40.5,96.1246338,0.0,12.8999996,40.9634895,0.0,0.0,0.0,0.0,0.0,0.0,0.0,0.0,0.0,0.0,0.0,0.0,0.0,0.0,0.0,0.0,0.0,0.0,0.0,0.0,3.0,1.0,1.0
1720610213,50.0,-0.0021746,0.05,0.0,-0.0006307,0.0,-0.0006307,0.0,2799.4467773,2799.4467773,0.0,0.0,0.0,-0.555,-199800.0,0.0,-12.6000004,0.3,-42.0999985,98.4436035,0.0,12.8999996,40.9634895,0.0,0.0,0.0,0.0,0.0,0.0,0.0,0.0,0.0,0.0,0.0,0.0,0.0,0.0,0.0,0.0,0.0,0.0,0.0,0.0,3.0,1.0,1.0
1720610214,50.0,-0.0025013,0.05,0.0,-0.0006133,0.0,-0.0006133,0.0,2799.4467773,2799.4467773,0.0,0.0,0.0,-0.555,-199800.0,0.0,-14.0,1.9,-46.4000015,117.5158691,0.0,12.8000002,40.9862556,0.0,0.0,0.0,0.0,0.0,0.0,0.0,0.0,0.0,0.0,0.0,0.0,0.0,0.0,0.0,0.0,0.0,0.0,0.0,0.0,3.0,1.0,1.0
1720610215,50.0,-0.0027771,0.05,0.0,-0.0005941,0.0,-0.0005941,0.0,2799.4467773,2799.4467773,0.0,0.0,0.0,-0.555,-199800.0,0.0,-9.3999996,0.4,-51.5,98.4436035,0.0,12.8000002,40.9976387,0.0,0.0,0.0,0.0,0.0,0.0,0.0,0.0,0.0,0.0,0.0,0.0,0.0,0.0,0.0,0.0,0.0,0.0,0.0,0.0,3.0,1.0,1.0
1720610216,50.0,-0.0030058,0.05,0.0,-0.0005732,0.0,-0.0005732,0.0,2799.4467773,2799.4467773,0.0,0.0,0.0,-0.555,-199800.0,0.0,-2.9000001,0.1,-54.2999992,98.4436035,0.0,12.8000002,40.9862556,0.0,0.0,0.0,0.0,0.0,0.0,0.0,0.0,0.0,0.0,0.0,0.0,0.0,0.0,0.0,0.0,0.0,0.0,0.0,0.0,3.0,1.0,1.0
1720610217,50.0,-0.0031912,0.05,0.0,-0.000551,0.0,-0.000551,0.0,2799.4521484,2799.4521484,0.0,0.0,0.0,-0.555,-199800.0,0.0,-5.9000001,-1.9,-49.5999985,98.4436035,0.0,12.8000002,40.9634895,0.0,0.0,0.0,0.0,0.0,0.0,0.0,0.0,0.0,0.0,0.0,0.0,0.0,0.0,0.0,0.0,0.0,0.0,0.0,0.0,3.0,1.0,1.0
1720610218,50.0,-0.0033367,0.05,0.0,-0.0005279,0.0,-0.0005279,0.0,2799.4519043,2799.4519043,0.0,0.0,0.0,-0.555,-199800.0,0.0,-11.1000004,1.7,-56.0,96.1246338,0.0,12.6999998,40.9634895,0.0,0.0,0.0,0.0,0.0,0.0,0.0,0.0,0.0,0.0,0.0,0.0,0.0,0.0,0.0,0.0,0.0,0.0,0.0,0.0,3.0,1.0,1.0
1720610219,50.0,-0.0034457,0.05,0.0,-0.000504,0.0,-0.000504,0.0,2799.4523926,2799.4523926,0.0,0.0,0.0,-0.555,-199800.0,0.0,-8.3000002,0.7,-76.0,96.1246338,0.0,12.6999998,40.9634895,0.0,0.0,0.0,0.0,0.0,0.0,0.0,0.0,0.0,0.0,0.0,0.0,0.0,0.0,0.0,0.0,0.0,0.0,0.0,0.0,3.0,1.0,1.0
1720610220,50.0,-0.0035217,0.05,0.0,-0.0004795,0.0,-0.0004795,0.0,2799.4521484,2799.4521484,0.0,0.0,0.0,-0.555,-199800.0,0.0,-5.9000001,-5.5,-77.3000031,100.5991211,0.0,12.6999998,40.9634895,0.0,0.0,0.0,0.0,0.0,0.0,0.0,0.0,0.0,0.0,0.0,0.0,0.0,0.0,0.0,0.0,0.0,0.0,0.0,0.0,3.0,1.0,1.0
1720610221,50.0,-0.0035676,0.05,0.0,-0.0004548,0.0,-0.0004548,0.0,2799.4526367,2799.4526367,0.0,0.0,0.0,-0.555,-199800.0,0.0,-9.3000002,-0.8,-89.8000031,100.5991211,0.0,12.6999998,40.9862556,0.0,0.0,0.0,0.0,0.0,0.0,0.0,0.0,0.0,0.0,0.0,0.0,0.0,0.0,0.0,0.0,0.0,0.0,0.0,0.0,3.0,1.0,1.0
1720610222,50.0,-0.0035864,0.05,0.0,-0.0004299,0.0,-0.0004299,0.0,2799.4523926,2799.4523926,0.0,0.0,0.0,-0.555,-199800.0,0.0,-9.3999996,5.4000001,-128.8999939,96.1246338,0.0,12.6999998,41.0090179,0.0,0.0,0.0,0.0,0.0,0.0,0.0,0.0,0.0,0.0,0.0,0.0,0.0,0.0,0.0,0.0,0.0,0.0,0.0,0.0,3.0,1.0,1.0
1720610223,50.0,-0.0035811,0.05,0.0,-0.000405,0.0,-0.000405,0.0,2799.4521484,2799.4521484,0.0,0.0,0.0,-0.555,-199800.0,0.0,-6.6999998,-1.1,169.1999969,92.4063721,0.0,12.6000004,40.9634895,0.0,0.0,0.0,0.0,0.0,0.0,0.0,0.0,0.0,0.0,0.0,0.0,0.0,0.0,0.0,0.0,0.0,0.0,0.0,0.0,3.0,1.0,1.0
1720610224,50.0,-0.0035541,0.05,0.0,-0.0003804,0.0,-0.0003804,0.0,2799.4467773,2799.4467773,0.0,0.0,0.0,-0.555,-199800.0,0.0,-5.0999999,-1.7,145.1999969,92.4063721,0.0,12.6000004,40.9634895,0.0,0.0,0.0,0.0,0.0,0.0,0.0,0.0,0.0,0.0,0.0,0.0,0.0,0.0,0.0,0.0,0.0,0.0,0.0,0.0,3.0,1.0,1.0
1720610225,50.0,-0.0035081,0.05,0.0,-0.000356,0.0,-0.000356,0.0,2799.4467773,2799.4467773,0.0,0.0,0.0,-0.555,-199800.0,0.0,-10.6000004,-2.0999999,132.5,100.5991211,0.0,12.6000004,40.9634895,0.0,0.0,0.0,0.0,0.0,0.0,0.0,0.0,0.0,0.0,0.0,0.0,0.0,0.0,0.0,0.0,0.0,0.0,0.0,0.0,3.0,1.0,1.0
1720610226,50.0,-0.0034453,0.05,0.0,-0.0003321,0.0,-0.0003321,0.0,2799.4467773,2799.4467773,0.0,0.0,0.0,-0.555,-199800.0,0.0,-9.3999996,2.8,127.9000015,100.5991211,0.0,12.6000004,40.9634895,0.0,0.0,0.0,0.0,0.0,0.0,0.0,0.0,0.0,0.0,0.0,0.0,0.0,0.0,0.0,0.0,0.0,0.0,0.0,0.0,3.0,1.0,1.0
1720610227,50.0,-0.003368,0.05,0.0,-0.0003087,0.0,-0.0003087,0.0,2799.4467773,2799.4467773,0.0,0.0,0.0,-0.555,-199800.0,0.0,-4.3000002,0.0,125.6999969,92.4063721,0.0,12.6000004,40.9748726,0.0,0.0,0.0,0.0,0.0,0.0,0.0,0.0,0.0,0.0,0.0,0.0,0.0,0.0,0.0,0.0,0.0,0.0,0.0,0.0,3.0,1.0,1.0
1720610228,50.0,-0.0032783,0.05,0.0,-0.000286,0.0,-0.000286,0.0,2799.4467773,2799.4467773,0.0,0.0,0.0,-0.555,-199800.0,0.0,-6.4000001,-1.9,117.0,92.4063721,0.0,12.6000004,41.0090179,0.0,0.0,0.0,0.0,0.0,0.0,0.0,0.0,0.0,0.0,0.0,0.0,0.0,0.0,0.0,0.0,0.0,0.0,0.0,0.0,3.0,1.0,1.0
1720610229,50.0,-0.003178,0.05,0.0,-0.0002639,0.0,-0.0002639,0.0,2799.4470215,2799.4470215,0.0,0.0,0.0,-0.555,-199800.0,0.0,-10.3999996,-0.6,114.8000031,92.4063721,0.0,12.6000004,40.9748726,0.0,0.0,0.0,0.0,0.0,0.0,0.0,0.0,0.0,0.0,0.0,0.0,0.0,0.0,0.0,0.0,0.0,0.0,0.0,0.0,3.0,1.0,1.0
1720610230,50.0,-0.0030689,0.05,0.0,-0.0002426,0.0,-0.0002426,0.0,2799.4467773,2799.4467773,0.0,0.0,0.0,-0.555,-199800.0,0.0,-10.0,2.7,113.1999969,100.5991211,0.0,12.6000004,40.9634895,0.0,0.0,0.0,0.0,0.0,0.0,0.0,0.0,0.0,0.0,0.0,0.0,0.0,0.0,0.0,0.0,0.0,0.0,0.0,0.0,3.0,1.0,1.0
1720610231,50.0,-0.0029526,0.05,0.0,-0.0002221,0.0,-0.0002221,0.0,2799.4467773,2799.4467773,0.0,0.0,0.0,-0.555,-199800.0,0.0,-6.5999999,2.7,111.5,99.7253418,0.0,12.5,40.9634895,0.0,0.0,0.0,0.0,0.0,0.0,0.0,0.0,0.0,0.0,0.0,0.0,0.0,0.0,0.0,0.0,0.0,0.0,0.0,0.0,3.0,1.0,1.0
1720610232,50.0,-0.0028307,0.05,0.0,-0.0002025,0.0,-0.0002025,0.0,2799.4467773,2799.4467773,0.0,0.0,0.0,-0.555,-199800.0,0.0,-6.0,-1.3,110.8000031,93.3623047,0.0,12.5,40.9634895,0.0,0.0,0.0,0.0,0.0,0.0,0.0,0.0,0.0,0.0,0.0,0.0,0.0,0.0,0.0,0.0,0.0,0.0,0.0,0.0,3.0,1.0,1.0
1720610233,50.0,-0.0027044,0.05,0.0,-0.0001837,0.0,-0.0001837,0.0,2799.4467773,2799.4467773,0.0,0.0,0.0,-0.555,-199800.0,0.0,-8.1000004,-1.1,108.9000015,99.7253418,0.0,12.5,40.9748726,0.0,0.0,0.0,0.0,0.0,0.0,0.0,0.0,0.0,0.0,0.0,0.0,0.0,0.0,0.0,0.0,0.0,0.0,0.0,0.0,3.0,1.0,1.0
1720610234,50.0,-0.0025751,0.05,0.0,-0.0001658,0.0,-0.0001658,0.0,2799.4467773,2799.4467773,0.0,0.0,0.0,-0.555,-199800.0,0.0,-7.8000002,-2.5999999,106.1999969,105.211792,0.0,12.5,41.0090179,0.0,0.0,0.0,0.0,0.0,0.0,0.0,0.0,0.0,0.0,0.0,0.0,0.0,0.0,0.0,0.0,0.0,0.0,0.0,0.0,3.0,1.0,1.0
1720610235,50.0,-0.0024439,0.05,0.0,-0.0001489,0.0,-0.0001489,0.0,2799.4521484,2799.4521484,0.0,0.0,0.0,-0.555,-199800.0,0.0,-7.9000001,2.2,105.0999985,105.211792,0.0,12.5,40.9748726,0.0,0.0,0.0,0.0,0.0,0.0,0.0,0.0,0.0,0.0,0.0,0.0,0.0,0.0,0.0,0.0,0.0,0.0,0.0,0.0,3.0,1.0,1.0
1720610236,50.0,-0.0023118,0.05,0.0,-0.0001328,0.0,-0.0001328,0.0,2799.4521484,2799.4521484,0.0,0.0,0.0,-0.555,-199800.0,0.0,-8.1999998,3.9000001,104.6999969,103.9771729,0.0,12.5,40.9748726,0.0,0.0,0.0,0.0,0.0,0.0,0.0,0.0,0.0,0.0,0.0,0.0,0.0,0.0,0.0,0.0,0.0,0.0,0.0,0.0,3.0,1.0,1.0
1720610237,50.0,-0.0021797,0.05,0.0,-0.0001177,0.0,-0.0001177,0.0,2799.4521484,2799.4521484,0.0,0.0,0.0,-0.555,-199800.0,0.0,-6.1999998,0.9,105.1999969,105.211792,0.0,12.3999996,40.9634895,0.0,0.0,0.0,0.0,0.0,0.0,0.0,0.0,0.0,0.0,0.0,0.0,0.0,0.0,0.0,0.0,0.0,0.0,0.0,0.0,3.0,1.0,1.0
1720610238,50.0,-0.0020484,0.05,0.0,-0.0001035,0.0,-0.0001035,0.0,2799.4521484,2799.4521484,0.0,0.0,0.0,-0.555,-199800.0,0.0,-7.5999999,-2.5999999,102.3000031,111.4643555,0.0,12.5,40.9634895,0.0,0.0,0.0,0.0,0.0,0.0,0.0,0.0,0.0,0.0,0.0,0.0,0.0,0.0,0.0,0.0,0.0,0.0,0.0,0.0,3.0,1.0,1.0
1720610239,50.0,-0.0019187,0.05,0.0,-9.02e-05,0.0,-9.02e-05,0.0,2799.4521484,2799.4521484,0.0,0.0,0.0,-0.555,-199800.0,0.0,-8.5,0.4,99.0,111.4643555,0.0,12.3999996,40.9748726,0.0,0.0,0.0,0.0,0.0,0.0,0.0,0.0,0.0,0.0,0.0,0.0,0.0,0.0,0.0,0.0,0.0,0.0,0.0,0.0,3.0,1.0,1.0
1720610240,50.0,-0.0017911,0.05,0.0,-7.77e-05,0.0,-7.77e-05,0.0,2799.4521484,2799.4521484,0.0,0.0,0.0,-0.555,-199800.0,0.0,-8.3000002,-0.2,98.5,111.4643555,0.0,12.3999996,40.9748726,0.0,0.0,0.0,0.0,0.0,0.0,0.0,0.0,0.0,0.0,0.0,0.0,0.0,0.0,0.0,0.0,0.0,0.0,0.0,0.0,3.0,1.0,1.0
1720610241,50.0,-0.0016663,0.05,0.0,-6.62e-05,0.0,-6.62e-05,0.0,2799.4467773,2799.4467773,0.0,0.0,0.0,-0.555,-199800.0,0.0,-9.6999998,-1.7,99.6999969,118.2489014,0.0,12.3999996,40.9862556,0.0,0.0,0.0,0.0,0.0,0.0,0.0,0.0,0.0,0.0,0.0,0.0,0.0,0.0,0.0,0.0,0.0,0.0,0.0,0.0,3.0,1.0,1.0
1720610242,50.0,-0.0015447,0.05,0.0,-5.54e-05,0.0,-5.54e-05,0.0,2799.4467773,2799.4467773,0.0,0.0,0.0,-0.555,-199800.0,0.0,-4.8000002,3.5,98.3000031,118.2489014,0.0,12.3999996,40.9748726,0.0,0.0,0.0,0.0,0.0,0.0,0.0,0.0,0.0,0.0,0.0,0.0,0.0,0.0,0.0,0.0,0.0,0.0,0.0,0.0,3.0,1.0,1.0
1720610243,50.0,-0.0014267,0.05,0.0,-4.55e-05,0.0,-4.55e-05,0.0,2799.4467773,2799.4467773,0.0,0.0,0.0,-0.555,-199800.0,0.0,-5.6999998,-1.5,96.0999985,118.2489014,0.0,12.3999996,40.9634895,0.0,0.0,0.0,0.0,0.0,0.0,0.0,0.0,0.0,0.0,0.0,0.0,0.0,0.0,0.0,0.0,0.0,0.0,0.0,0.0,3.0,1.0,1.0
1720610244,50.0,-0.0013127,0.05,0.0,-3.64e-05,0.0,-3.64e-05,0.0,2799.4467773,2799.4467773,0.0,0.0,0.0,-0.555,-199800.0,0.0,-8.8999996,-0.4,95.4000015,118.2489014,0.0,12.3999996,40.9634895,0.0,0.0,0.0,0.0,0.0,0.0,0.0,0.0,0.0,0.0,0.0,0.0,0.0,0.0,0.0,0.0,0.0,0.0,0.0,0.0,3.0,1.0,1.0
1720610245,50.0,-0.0012029,0.05,0.0,-2.81e-05,0.0,-2.81e-05,0.0,2799.4467773,2799.4467773,0.0,0.0,0.0,-0.555,-199800.0,0.0,-8.5,2.7,94.0999985,118.2489014,0.0,12.3999996,40.9748726,0.0,0.0,0.0,0.0,0.0,0.0,0.0,0.0,0.0,0.0,0.0,0.0,0.0,0.0,0.0,0.0,0.0,0.0,0.0,0.0,3.0,1.0,1.0
1720610246,50.0,-0.0010976,0.05,0.0,-2.05e-05,0.0,-2.05e-05,0.0,2799.4467773,2799.4467773,0.0,0.0,0.0,-0.555,-199800.0,0.0,-9.1000004,-0.5,94.6999969,118.2489014,0.0,12.3999996,40.9748726,0.0,0.0,0.0,0.0,0.0,0.0,0.0,0.0,0.0,0.0,0.0,0.0,0.0,0.0,0.0,0.0,0.0,0.0,0.0,0.0,3.0,1.0,1.0
1720610247,50.0,-0.0009969,0.05,0.0,-1.35e-05,0.0,-1.35e-05,0.0,2799.4467773,2799.4467773,0.0,0.0,0.0,-0.555,-199800.0,0.0,-6.9000001,-0.2,94.0,120.1800537,0.0,12.3999996,40.9862556,0.0,0.0,0.0,0.0,0.0,0.0,0.0,0.0,0.0,0.0,0.0,0.0,0.0,0.0,0.0,0.0,0.0,0.0,0.0,0.0,3.0,1.0,1.0
1720610248,50.0,-0.0009009,0.05,0.0,-7.3e-06,0.0,-7.3e-06,0.0,2799.4467773,2799.4467773,0.0,0.0,0.0,-0.555,-199800.0,0.0,-6.8000002,0.7,93.6999969,120.1800537,0.0,12.3999996,40.9748726,0.0,0.0,0.0,0.0,0.0,0.0,0.0,0.0,0.0,0.0,0.0,0.0,0.0,0.0,0.0,0.0,0.0,0.0,0.0,0.0,3.0,1.0,1.0
1720610249,50.0,-0.0008098,0.05,0.0,-1.7e-06,0.0,-1.7e-06,0.0,2799.4467773,2799.4467773,0.0,0.0,0.0,-0.555,-199800.0,0.0,-7.0,1.7,92.0,118.2489014,0.0,12.3999996,40.9748726,0.0,0.0,0.0,0.0,0.0,0.0,0.0,0.0,0.0,0.0,0.0,0.0,0.0,0.0,0.0,0.0,0.0,0.0,0.0,0.0,3.0,1.0,1.0
1720610250,50.0,-0.0007235,0.05,0.0,3.4e-06,0.0,3.4e-06,0.0,2799.4470215,2799.4470215,0.0,0.0,0.0,-0.555,-199800.0,0.0,-8.6000004,-3.4000001,92.3000031,118.2489014,0.0,12.3999996,40.9634895,0.0,0.0,0.0,0.0,0.0,0.0,0.0,0.0,0.0,0.0,0.0,0.0,0.0,0.0,0.0,0.0,0.0,0.0,0.0,0.0,3.0,1.0,1.0
1720610251,50.0,-0.0006421,0.05,0.0,7.8e-06,0.0,7.8e-06,0.0,2799.4467773,2799.4467773,0.0,0.0,0.0,-0.555,-199800.0,0.0,-11.6000004,-1.6,90.5,120.1800537,0.0,12.3999996,40.9634895,0.0,0.0,0.0,0.0,0.0,0.0,0.0,0.0,0.0,0.0,0.0,0.0,0.0,0.0,0.0,0.0,0.0,0.0,0.0,0.0,3.0,1.0,1.0
1720610252,50.0,-0.0005655,0.05,0.0,1.17e-05,0.0,1.17e-05,0.0,2799.4467773,2799.4467773,0.0,0.0,0.0,-0.555,-199800.0,0.0,-5.3000002,4.0,88.3000031,120.1800537,0.0,12.3000002,40.9748726,0.0,0.0,0.0,0.0,0.0,0.0,0.0,0.0,0.0,0.0,0.0,0.0,0.0,0.0,0.0,0.0,0.0,0.0,0.0,0.0,3.0,1.0,1.0
1720610253,50.0,-0.0004938,0.05,0.0,1.52e-05,0.0,1.52e-05,0.0,2799.4470215,2799.4470215,0.0,0.0,0.0,-0.555,-199800.0,0.0,-7.5,1.4,87.5,120.1800537,0.0,12.3000002,40.9862556,0.0,0.0,0.0,0.0,0.0,0.0,0.0,0.0,0.0,0.0,0.0,0.0,0.0,0.0,0.0,0.0,0.0,0.0,0.0,0.0,3.0,1.0,1.0
1720610254,50.0,-0.0004267,0.05,0.0,1.81e-05,0.0,1.81e-05,0.0,2799.4467773,2799.4467773,0.0,0.0,0.0,-0.555,-199800.0,0.0,-9.6000004,-0.3,87.5999985,120.1800537,0.0,12.3000002,40.9976387,0.0,0.0,0.0,0.0,0.0,0.0,0.0,0.0,0.0,0.0,0.0,0.0,0.0,0.0,0.0,0.0,0.0,0.0,0.0,0.0,3.0,1.0,1.0
1720610255,50.0,-0.0003643,0.05,0.0,2.07e-05,0.0,2.07e-05,0.0,2799.4467773,2799.4467773,0.0,0.0,0.0,-0.555,-199800.0,0.0,-8.6000004,-2.0999999,87.6999969,120.1800537,0.0,12.3000002,40.9748726,0.0,0.0,0.0,0.0,0.0,0.0,0.0,0.0,0.0,0.0,0.0,0.0,0.0,0.0,0.0,0.0,0.0,0.0,0.0,0.0,3.0,1.0,1.0
1720610256,50.0,-0.0003064,0.05,0.0,2.28e-05,0.0,2.28e-05,0.0,2799.4523926,2799.4523926,0.0,0.0,0.0,-0.555,-199800.0,0.0,-7.6999998,-3.5,89.0,122.6577148,0.0,12.3000002,40.9521103,0.0,0.0,0.0,0.0,0.0,0.0,0.0,0.0,0.0,0.0,0.0,0.0,0.0,0.0,0.0,0.0,0.0,0.0,0.0,0.0,3.0,1.0,1.0
1720610257,50.0,-0.0002529,0.05,0.0,2.45e-05,0.0,2.45e-05,0.0,2799.4523926,2799.4523926,0.0,0.0,0.0,-0.555,-199800.0,0.0,-4.4000001,4.0,85.5,130.1107178,0.0,12.3000002,40.9521103,0.0,0.0,0.0,0.0,0.0,0.0,0.0,0.0,0.0,0.0,0.0,0.0,0.0,0.0,0.0,0.0,0.0,0.0,0.0,0.0,3.0,1.0,1.0
1720610258,50.0,-0.0002036,0.05,0.0,2.6e-05,0.0,2.6e-05,0.0,2799.4523926,2799.4523926,0.0,0.0,0.0,-0.555,-199800.0,0.0,-8.8000002,3.3,84.3000031,130.1107178,0.0,12.3000002,40.9748726,0.0,0.0,0.0,0.0,0.0,0.0,0.0,0.0,0.0,0.0,0.0,0.0,0.0,0.0,0.0,0.0,0.0,0.0,0.0,0.0,3.0,1.0,1.0
1720610259,50.0,-0.0001584,0.05,0.0,2.71e-05,0.0,2.71e-05,0.0,2799.4523926,2799.4523926,0.0,0.0,0.0,-0.555,-199800.0,0.0,-11.8000002,-0.1,84.5999985,130.1107178,0.0,12.3000002,40.9862556,0.0,0.0,0.0,0.0,0.0,0.0,0.0,0.0,0.0,0.0,0.0,0.0,0.0,0.0,0.0,0.0,0.0,0.0,0.0,0.0,3.0,1.0,1.0
1720610260,50.0,-0.0001171,0.05,0.0,2.79e-05,0.0,2.79e-05,0.0,2799.4523926,2799.4523926,0.0,0.0,0.0,-0.555,-199800.0,0.0,-8.0,0.4,84.8000031,130.1107178,0.0,12.3000002,40.9976387,0.0,0.0,0.0,0.0,0.0,0.0,0.0,0.0,0.0,0.0,0.0,0.0,0.0,0.0,0.0,0.0,0.0,0.0,0.0,0.0,3.0,1.0,1.0
1720610261,50.0,-7.96e-05,0.05,0.0,2.84e-05,0.0,2.84e-05,0.0,2799.4523926,2799.4523926,0.0,0.0,0.0,-0.555,-199800.0,0.0,-6.5,-2.4000001,83.4000015,130.1107178,0.0,12.3000002,40.9862556,0.0,0.0,0.0,0.0,0.0,0.0,0.0,0.0,0.0,0.0,0.0,0.0,0.0,0.0,0.0,0.0,0.0,0.0,0.0,0.0,3.0,1.0,1.0
1720610262,50.0,-4.56e-05,0.05,0.0,2.87e-05,0.0,2.87e-05,0.0,2799.4467773,2799.4467773,0.0,0.0,0.0,-0.555,-199800.0,0.0,-8.3000002,-3.8,83.3000031,130.1107178,0.0,12.3000002,40.9521103,0.0,0.0,0.0,0.0,0.0,0.0,0.0,0.0,0.0,0.0,0.0,0.0,0.0,0.0,0.0,0.0,0.0,0.0,0.0,0.0,3.0,1.0,1.0
1720610263,50.0,-1.5e-05,0.05,0.0,2.88e-05,0.0,2.88e-05,0.0,2799.4465332,2799.4465332,0.0,0.0,0.0,-0.555,-199800.0,0.0,-7.6999998,3.4000001,82.8000031,138.96521,0.0,12.3000002,40.9521103,0.0,0.0,0.0,0.0,0.0,0.0,0.0,0.0,0.0,0.0,0.0,0.0,0.0,0.0,0.0,0.0,0.0,0.0,0.0,0.0,3.0,1.0,1.0
1720610264,50.0,1.23e-05,0.05,0.0,2.88e-05,0.0,2.88e-05,0.0,2799.4467773,2799.4467773,0.0,0.0,0.0,-0.555,-199800.0,0.0,-2.7,4.9000001,81.6999969,138.96521,0.0,12.1999998,40.9634895,0.0,0.0,0.0,0.0,0.0,0.0,0.0,0.0,0.0,0.0,0.0,0.0,0.0,0.0,0.0,0.0,0.0,0.0,0.0,0.0,3.0,1.0,1.0
1720610265,50.0,3.66e-05,0.05,0.0,2.85e-05,0.0,2.85e-05,0.0,2799.4467773,2799.4467773,0.0,0.0,0.0,-0.555,-199800.0,0.0,-8.8000002,0.1,80.4000015,138.96521,0.0,12.3000002,40.9862556,0.0,0.0,0.0,0.0,0.0,0.0,0.0,0.0,0.0,0.0,0.0,0.0,0.0,0.0,0.0,0.0,0.0,0.0,0.0,0.0,3.0,1.0,1.0
1720610266,50.0,0.0108953,0.0499,0.0,0.0006469,0.0,0.0006469,0.0,2799.4467773,2799.4467773,0.0,0.0,0.0,-0.555,-199800.0,0.0,-15.5,-4.5,82.5,138.96521,0.1,12.1999998,40.9976387,0.0,0.0,0.0,0.0,0.0,0.0,0.0,0.0,0.0,0.0,0.0,0.0,0.0,0.0,0.0,0.0,0.0,0.0,0.0,0.0,3.0,1.0,1.0
1720610267,50.0,0.0102914,0.05,0.0,0.0005755,0.0,0.0005755,0.0,2799.4467773,2799.4467773,0.0,0.0,0.0,-0.555,-199800.0,0.0,-6.6999998,0.8,79.9000015,138.96521,0.0,12.1999998,40.9862556,0.0,0.0,0.0,0.0,0.0,0.0,0.0,0.0,0.0,0.0,0.0,0.0,0.0,0.0,0.0,0.0,0.0,0.0,0.0,0.0,3.0,1.0,1.0
1720610268,50.0,0.0096892,0.05,0.0,0.0005083,0.0,0.0005083,0.0,2799.4467773,2799.4467773,0.0,0.0,0.0,-0.555,-199800.0,0.0,-7.9000001,1.2,79.4000015,130.1107178,0.0,12.1999998,40.9748726,0.0,0.0,0.0,0.0,0.0,0.0,0.0,0.0,0.0,0.0,0.0,0.0,0.0,0.0,0.0,0.0,0.0,0.0,0.0,0.0,3.0,1.0,1.0
1720610269,50.0,0.0090924,0.05,0.0,0.0004452,0.0,0.0004452,0.0,2799.4467773,2799.4467773,0.0,0.0,0.0,-0.555,-199800.0,0.0,-4.9000001,-0.2,79.5,138.96521,0.0,12.1999998,40.9634895,0.0,0.0,0.0,0.0,0.0,0.0,0.0,0.0,0.0,0.0,0.0,0.0,0.0,0.0,0.0,0.0,0.0,0.0,0.0,0.0,3.0,1.0,1.0
1720610270,50.0,0.0085039,0.05,0.0,0.0003861,0.0,0.0003861,0.0,2799.4467773,2799.4467773,0.0,0.0,0.0,-0.555,-199800.0,0.0,-6.9000001,-0.2,80.0999985,138.96521,0.0,12.1999998,40.9634895,0.0,0.0,0.0,0.0,0.0,0.0,0.0,0.0,0.0,0.0,0.0,0.0,0.0,0.0,0.0,0.0,0.0,0.0,0.0,0.0,3.0,1.0,1.0
1720610271,50.0,0.0079266,0.05,0.0,0.0003311,0.0,0.0003311,0.0,2799.4467773,2799.4467773,0.0,0.0,0.0,-0.555,-199800.0,0.0,-7.4000001,3.0,80.0,138.96521,0.0,12.1999998,40.9748726,0.0,0.0,0.0,0.0,0.0,0.0,0.0,0.0,0.0,0.0,0.0,0.0,0.0,0.0,0.0,0.0,0.0,0.0,0.0,0.0,3.0,1.0,1.0
