Ticks,z_setpoint,z_actual,z_p,z_i,z_d,w_command,w_actual,w_i,Nabla_command,Nabla_actual,Nabla_p,Nabla_i,Nabla_d,Qv_command,sps_command,Nabla_air,Roll,Pitch,Yaw,Scale Derived Oil Volume,Depth (raw),Temperature,Battery,VOS,RangeTime,RangeDist,USBLAzimuth,USBLElevation,USBLFitError,PositionEasting,PositionNorthing,PositionDepth,AUX0,AUX1,AUX2,AUX3,AUX4,AUX5,AUX6,AUX7,AUX8,AUX9,SrcID,State,VALVE_INDEX,EN_PUMP
1715671861,120.0,0.0,0.12,0.0,0.0,0.0,0.0,0.0,2933.2077637,2933.2077637,0.0,0.0,0.0,0.555,199800.0,0.0,0.0,0.0,0.0,355.8378906,0.0,0.0,40.7586174,0.0,0.0,0.0,0.0,0.0,0.0,0.0,0.0,0.0,0.0,0.0,0.0,0.0,0.0,0.0,0.0,0.0,0.0,0.0,0.0,4.0,1.0,1.0
1715671861,120.0,0.0,0.12,0.0,0.0,0.0,0.0,0.0,2800.0,2800.0,0.0,0.0,0.0,0.0,0.0,0.0,0.0,0.0,0.0,355.8378906,0.0,0.0,40.7586174,0.0,0.0,0.0,0.0,0.0,0.0,0.0,0.0,0.0,0.0,0.0,0.0,0.0,0.0,0.0,0.0,0.0,0.0,0.0,0.0,5.0,1.0,0.0
1715671862,120.0,0.0,0.12,0.0,0.0,0.0,0.0,0.0,2800.0002441,2800.0002441,0.0,0.0,0.0,0.0,0.0,0.0,1.7,-179.0,-6.0999999,355.8378906,0.0,18.6000004,40.7586174,0.0,0.0,0.0,0.0,0.0,0.0,0.0,0.0,0.0,0.0,0.0,0.0,0.0,0.0,0.0,0.0,0.0,0.0,0.0,0.0,3.0,1.0,0.0
1715671863,120.0,0.0,0.12,0.0,0.0,0.0,0.0,0.0,2800.0002441,2800.0002441,0.0,0.0,0.0,-0.555,-199800.0,0.0,1.5,-179.0,-5.8000002,356.0550537,0.0,18.6000004,40.7586174,0.0,0.0,0.0,0.0,0.0,0.0,0.0,0.0,0.0,0.0,0.0,0.0,0.0,0.0,0.0,0.0,0.0,0.0,0.0,0.0,3.0,1.0,1.0
1715671864,120.0,0.0,0.12,0.0,0.0,0.0,0.0,0.0,2800.0,2800.0,0.0,0.0,0.0,-0.555,-199800.0,0.0,1.6,-179.1000061,-5.8000002,356.2607422,0.0,18.6000004,40.7586174,0.0,0.0,0.0,0.0,0.0,0.0,0.0,0.0,0.0,0.0,0.0,0.0,0.0,0.0,0.0,0.0,0.0,0.0,0.0,0.0,3.0,1.0,1.0
1715671865,120.0,0.0,0.12,0.0,0.0,0.0,0.0,0.0,2800.0,2800.0,0.0,0.0,0.0,-0.555,-199800.0,0.0,1.7,-179.0,-5.6999998,356.3863525,0.0,18.6000004,40.7586174,0.0,0.0,0.0,0.0,0.0,0.0,0.0,0.0,0.0,0.0,0.0,0.0,0.0,0.0,0.0,0.0,0.0,0.0,0.0,0.0,3.0,1.0,1.0
1715671866,120.0,0.0,0.12,0.0,0.0,0.0,0.0,0.0,2800.0,2800.0,0.0,0.0,0.0,-0.555,-199800.0,0.0,2.0999999,-179.1999969,-5.6999998,356.4777832,0.0,18.6000004,40.7586174,0.0,0.0,0.0,0.0,0.0,0.0,0.0,0.0,0.0,0.0,0.0,0.0,0.0,0.0,0.0,0.0,0.0,0.0,0.0,0.0,3.0,1.0,1.0
1715671867,120.0,0.0,0.12,0.0,0.0,0.0,0.0,0.0,2800.0,2800.0,0.0,0.0,0.0,-0.555,-199800.0,0.0,1.8,-179.1000061,-5.8000002,356.6035156,0.0,18.6000004,40.7586174,0.0,0.0,0.0,0.0,0.0,0.0,0.0,0.0,0.0,0.0,0.0,0.0,0.0,0.0,0.0,0.0,0.0,0.0,0.0,0.0,3.0,1.0,1.0
1715671868,120.0,0.0,0.12,0.0,0.0,0.0,0.0,0.0,2800.0,2800.0,0.0,0.0,0.0,-0.555,-199800.0,0.0,1.9,-179.3999939,-5.6999998,365.1702881,0.0,18.6000004,40.7586174,0.0,0.0,0.0,0.0,0.0,0.0,0.0,0.0,0.0,0.0,0.0,0.0,0.0,0.0,0.0,0.0,0.0,0.0,0.0,0.0,3.0,1.0,1.0
1715671869,120.0,0.0,0.12,0.0,0.0,0.0,0.0,0.0,2799.5629883,2799.5629883,0.0,0.0,0.0,-0.555,-199800.0,0.0,2.0,-179.1999969,-5.5999999,365.2159424,0.0,18.6000004,40.7586174,0.0,0.0,0.0,0.0,0.0,0.0,0.0,0.0,0.0,0.0,0.0,0.0,0.0,0.0,0.0,0.0,0.0,0.0,0.0,0.0,3.0,1.0,1.0
1715671870,120.0,0.0,0.12,0.0,0.0,0.0,0.0,0.0,2799.4467773,2799.4467773,0.0,0.0,0.0,-0.555,-199800.0,0.0,1.8,-179.3000031,-5.6999998,365.3530273,0.0,18.6000004,40.7586174,0.0,0.0,0.0,0.0,0.0,0.0,0.0,0.0,0.0,0.0,0.0,0.0,0.0,0.0,0.0,0.0,0.0,0.0,0.0,0.0,3.0,1.0,1.0
1715671871,120.0,0.0,0.12,0.0,0.0,0.0,0.0,0.0,2799.4523926,2799.4523926,0.0,0.0,0.0,-0.555,-199800.0,0.0,1.7,-179.1000061,-5.6999998,365.387207,0.0,18.6000004,40.7472343,0.0,0.0,0.0,0.0,0.0,0.0,0.0,0.0,0.0,0.0,0.0,0.0,0.0,0.0,0.0,0.0,0.0,0.0,0.0,0.0,3.0,1.0,1.0
1715671872,120.0,0.0,0.12,0.0,0.0,0.0,0.0,0.0,2799.4521484,2799.4521484,0.0,0.0,0.0,-0.555,-199800.0,0.0,1.8,-179.1999969,-5.5999999,365.901123,0.0,18.6000004,40.7472343,0.0,0.0,0.0,0.0,0.0,0.0,0.0,0.0,0.0,0.0,0.0,0.0,0.0,0.0,0.0,0.0,0.0,0.0,0.0,0.0,3.0,1.0,1.0
1715671873,120.0,0.0,0.12,0.0,0.0,0.0,0.0,0.0,2799.4521484,2799.4521484,0.0,0.0,0.0,-0.555,-199800.0,0.0,2.0999999,-179.3000031,-5.5999999,365.9580078,0.0,18.6000004,40.7472343,0.0,0.0,0.0,0.0,0.0,0.0,0.0,0.0,0.0,0.0,0.0,0.0,0.0,0.0,0.0,0.0,0.0,0.0,0.0,0.0,3.0,1.0,1.0
1715671874,120.0,0.0,0.12,0.0,0.0,0.0,0.0,0.0,2799.4523926,2799.4523926,0.0,0.0,0.0,-0.555,-199800.0,0.0,1.8,-179.1999969,-5.5999999,365.980957,0.0,18.6000004,40.7472343,0.0,0.0,0.0,0.0,0.0,0.0,0.0,0.0,0.0,0.0,0.0,0.0,0.0,0.0,0.0,0.0,0.0,0.0,0.0,0.0,3.0,0.0,1.0
1715671875,120.0,0.0,0.12,0.0,0.0,0.0,0.0,0.0,2799.4526367,2799.4526367,0.0,0.0,0.0,-0.555,-199800.0,0.0,2.0,-179.3999939,-5.5999999,365.980957,0.0,18.6000004,40.7472343,0.0,0.0,0.0,0.0,0.0,0.0,0.0,0.0,0.0,0.0,0.0,0.0,0.0,0.0,0.0,0.0,0.0,0.0,0.0,0.0,3.0,1.0,1.0
1715671876,120.0,0.0,0.12,0.0,0.0,0.0,0.0,0.0,2799.4135742,2799.4135742,0.0,0.0,0.0,-0.555,-199800.0,0.0,1.7,-179.1999969,-5.3000002,366.1179199,0.0,18.6000004,40.7472343,0.0,0.0,0.0,0.0,0.0,0.0,0.0,0.0,0.0,0.0,0.0,0.0,0.0,0.0,0.0,0.0,0.0,0.0,0.0,0.0,3.0,1.0,1.0
1715671877,120.0,0.0,0.12,0.0,0.0,0.0,0.0,0.0,2799.4853516,2799.4853516,0.0,0.0,0.0,-0.555,-199800.0,0.0,1.9,-179.1999969,-5.3000002,366.6203613,0.0,18.6000004,40.713089,0.0,0.0,0.0,0.0,0.0,0.0,0.0,0.0,0.0,0.0,0.0,0.0,0.0,0.0,0.0,0.0,0.0,0.0,0.0,0.0,3.0,1.0,1.0
1715671878,120.0,0.0,0.12,0.0,0.0,0.0,0.0,0.0,2799.4523926,2799.4523926,0.0,0.0,0.0,-0.555,-199800.0,0.0,2.0999999,-179.1999969,-10.1999998,366.7116699,0.0,18.6000004,40.6903267,0.0,0.0,0.0,0.0,0.0,0.0,0.0,0.0,0.0,0.0,0.0,0.0,0.0,0.0,0.0,0.0,0.0,0.0,0.0,0.0,3.0,1.0,1.0
1715671879,120.0,0.0,0.12,0.0,0.0,0.0,0.0,0.0,2799.4465332,2799.4465332,0.0,0.0,0.0,-0.555,-199800.0,0.0,1.9,-179.3999939,-17.7999992,369.4285889,0.0,18.6000004,40.6675606,0.0,0.0,0.0,0.0,0.0,0.0,0.0,0.0,0.0,0.0,0.0,0.0,0.0,0.0,0.0,0.0,0.0,0.0,0.0,0.0,3.0,1.0,1.0
1715671880,120.0,0.0,0.12,0.0,0.0,0.0,0.0,0.0,2799.4467773,2799.4467773,0.0,0.0,0.0,-0.555,-199800.0,0.0,1.9,-179.3999939,-6.5999999,370.4331055,0.0,18.6000004,40.6675606,0.0,0.0,0.0,0.0,0.0,0.0,0.0,0.0,0.0,0.0,0.0,0.0,0.0,0.0,0.0,0.0,0.0,0.0,0.0,0.0,3.0,1.0,1.0
1715671881,120.0,0.0,0.12,0.0,0.0,0.0,0.0,0.0,2799.4472656,2799.4472656,0.0,0.0,0.0,-0.555,-199800.0,0.0,1.9,-179.3000031,-6.0999999,371.1522217,0.0,18.6000004,40.6675606,0.0,0.0,0.0,0.0,0.0,0.0,0.0,0.0,0.0,0.0,0.0,0.0,0.0,0.0,0.0,0.0,0.0,0.0,0.0,0.0,3.0,1.0,1.0
1715671882,120.0,0.0,0.12,0.0,0.0,0.0,0.0,0.0,2799.4467773,2799.4467773,0.0,0.0,0.0,-0.555,-199800.0,0.0,1.9,-179.3999939,-5.9000001,371.6656494,0.0,18.6000004,40.6561813,0.0,0.0,0.0,0.0,0.0,0.0,0.0,0.0,0.0,0.0,0.0,0.0,0.0,0.0,0.0,0.0,0.0,0.0,0.0,0.0,3.0,1.0,1.0
1715671883,120.0,0.0,0.12,0.0,0.0,0.0,0.0,0.0,2799.4467773,2799.4467773,0.0,0.0,0.0,-0.555,-199800.0,0.0,1.9,-179.3000031,-5.8000002,372.3504639,0.0,18.6000004,40.6447983,0.0,0.0,0.0,0.0,0.0,0.0,0.0,0.0,0.0,0.0,0.0,0.0,0.0,0.0,0.0,0.0,0.0,0.0,0.0,0.0,3.0,1.0,1.0
1715671884,120.0,0.0,0.12,0.0,0.0,0.0,0.0,0.0,2799.4465332,2799.4465332,0.0,0.0,0.0,-0.555,-199800.0,0.0,1.9,-179.3000031,-5.6999998,373.0579834,0.0,18.6000004,40.6334152,0.0,0.0,0.0,0.0,0.0,0.0,0.0,0.0,0.0,0.0,0.0,0.0,0.0,0.0,0.0,0.0,0.0,0.0,0.0,0.0,3.0,1.0,1.0
1715671885,120.0,0.0,0.12,0.0,0.0,0.0,0.0,0.0,2799.4467773,2799.4467773,0.0,0.0,0.0,-0.555,-199800.0,0.0,1.9,-179.3999939,-5.6999998,373.4117432,0.0,18.6000004,40.6334152,0.0,0.0,0.0,0.0,0.0,0.0,0.0,0.0,0.0,0.0,0.0,0.0,0.0,0.0,0.0,0.0,0.0,0.0,0.0,0.0,3.0,1.0,1.0
1715671886,120.0,0.0,0.12,0.0,0.0,0.0,0.0,0.0,2799.4465332,2799.4465332,0.0,0.0,0.0,-0.555,-199800.0,0.0,1.9,-179.3999939,-5.6999998,374.4729004,0.0,18.6000004,40.6447983,0.0,0.0,0.0,0.0,0.0,0.0,0.0,0.0,0.0,0.0,0.0,0.0,0.0,0.0,0.0,0.0,0.0,0.0,0.0,0.0,3.0,1.0,1.0
1715671887,120.0,0.0,0.12,0.0,0.0,0.0,0.0,0.0,2799.4470215,2799.4470215,0.0,0.0,0.0,-0.555,-199800.0,0.0,1.8,-179.3999939,-5.6999998,374.5185547,0.0,18.6000004,40.6675606,0.0,0.0,0.0,0.0,0.0,0.0,0.0,0.0,0.0,0.0,0.0,0.0,0.0,0.0,0.0,0.0,0.0,0.0,0.0,0.0,3.0,1.0,1.0
1715671888,120.0,0.0,0.12,0.0,0.0,0.0,0.0,0.0,2799.4467773,2799.4467773,0.0,0.0,0.0,-0.555,-199800.0,0.0,1.9,-179.3999939,-5.6999998,376.1158447,0.0,18.6000004,40.6675606,0.0,0.0,0.0,0.0,0.0,0.0,0.0,0.0,0.0,0.0,0.0,0.0,0.0,0.0,0.0,0.0,0.0,0.0,0.0,0.0,3.0,1.0,1.0
1715671889,120.0,0.0,0.12,0.0,0.0,0.0,0.0,0.0,2799.4467773,2799.4467773,0.0,0.0,0.0,-0.555,-199800.0,0.0,2.0,-179.3000031,-5.6999998,377.4390869,0.0,18.6000004,40.6561813,0.0,0.0,0.0,0.0,0.0,0.0,0.0,0.0,0.0,0.0,0.0,0.0,0.0,0.0,0.0,0.0,0.0,0.0,0.0,0.0,3.0,1.0,1.0
1715671890,120.0,0.0,0.12,0.0,0.0,0.0,0.0,0.0,2799.4467773,2799.4467773,0.0,0.0,0.0,-0.555,-199800.0,0.0,1.9,-179.5,-5.6999998,377.7585449,0.0,18.6000004,40.6334152,0.0,0.0,0.0,0.0,0.0,0.0,0.0,0.0,0.0,0.0,0.0,0.0,0.0,0.0,0.0,0.0,0.0,0.0,0.0,0.0,3.0,1.0,1.0
1715671891,120.0,0.0,0.12,0.0,0.0,0.0,0.0,0.0,2799.4467773,2799.4467773,0.0,0.0,0.0,-0.555,-199800.0,0.0,1.9,-179.3000031,-5.6999998,378.7053223,0.0,18.6000004,40.622036,0.0,0.0,0.0,0.0,0.0,0.0,0.0,0.0,0.0,0.0,0.0,0.0,0.0,0.0,0.0,0.0,0.0,0.0,0.0,0.0,3.0,1.0,1.0
1715671892,120.0,0.0,0.12,0.0,0.0,0.0,0.0,0.0,2799.4467773,2799.4467773,0.0,0.0,0.0,-0.555,-199800.0,0.0,1.8,-179.3999939,-5.6999998,380.4503174,0.0,18.6000004,40.6334152,0.0,0.0,0.0,0.0,0.0,0.0,0.0,0.0,0.0,0.0,0.0,0.0,0.0,0.0,0.0,0.0,0.0,0.0,0.0,0.0,3.0,1.0,1.0
1715671893,120.0,0.0,0.12,0.0,0.0,0.0,0.0,0.0,2799.4467773,2799.4467773,0.0,0.0,0.0,-0.555,-199800.0,0.0,1.9,-179.3999939,-5.8000002,381.2600098,0.0,18.6000004,40.6334152,0.0,0.0,0.0,0.0,0.0,0.0,0.0,0.0,0.0,0.0,0.0,0.0,0.0,0.0,0.0,0.0,0.0,0.0,0.0,0.0,3.0,1.0,1.0
1715671894,120.0,0.0,0.12,0.0,0.0,0.0,0.0,0.0,2799.4467773,2799.4467773,0.0,0.0,0.0,-0.555,-199800.0,0.0,1.8,-179.3000031,-5.8000002,381.5223389,0.0,18.6000004,40.6561813,0.0,0.0,0.0,0.0,0.0,0.0,0.0,0.0,0.0,0.0,0.0,0.0,0.0,0.0,0.0,0.0,0.0,0.0,0.0,0.0,3.0,1.0,1.0
1715671895,120.0,0.0,0.12,0.0,0.0,0.0,0.0,0.0,2799.4526367,2799.4526367,0.0,0.0,0.0,-0.555,-199800.0,0.0,1.9,-179.1999969,-5.6999998,381.6933594,0.0,18.6000004,40.6334152,0.0,0.0,0.0,0.0,0.0,0.0,0.0,0.0,0.0,0.0,0.0,0.0,0.0,0.0,0.0,0.0,0.0,0.0,0.0,0.0,3.0,1.0,1.0
1715671896,120.0,0.0,0.12,0.0,0.0,0.0,0.0,0.0,2799.4521484,2799.4521484,0.0,0.0,0.0,-0.555,-199800.0,0.0,1.8,-179.1999969,-5.8000002,383.1984863,0.0,18.6000004,40.622036,0.0,0.0,0.0,0.0,0.0,0.0,0.0,0.0,0.0,0.0,0.0,0.0,0.0,0.0,0.0,0.0,0.0,0.0,0.0,0.0,3.0,1.0,1.0
1715671897,120.0,0.0,0.12,0.0,0.0,0.0,0.0,0.0,2799.4521484,2799.4521484,0.0,0.0,0.0,-0.555,-199800.0,0.0,1.8,-179.1000061,-5.9000001,383.8028564,0.0,18.6000004,40.622036,0.0,0.0,0.0,0.0,0.0,0.0,0.0,0.0,0.0,0.0,0.0,0.0,0.0,0.0,0.0,0.0,0.0,0.0,0.0,0.0,3.0,1.0,1.0
1715671898,120.0,0.0,0.12,0.0,0.0,0.0,0.0,0.0,2799.4521484,2799.4521484,0.0,0.0,0.0,-0.555,-199800.0,0.0,1.7,-179.1999969,-5.9000001,384.4984131,0.0,18.6000004,40.6334152,0.0,0.0,0.0,0.0,0.0,0.0,0.0,0.0,0.0,0.0,0.0,0.0,0.0,0.0,0.0,0.0,0.0,0.0,0.0,0.0,3.0,1.0,1.0
1715671899,120.0,0.0,0.12,0.0,0.0,0.0,0.0,0.0,2799.4521484,2799.4521484,0.0,0.0,0.0,-0.555,-199800.0,0.0,1.7,-179.3000031,-5.8000002,385.3305664,0.0,18.6000004,40.6334152,0.0,0.0,0.0,0.0,0.0,0.0,0.0,0.0,0.0,0.0,0.0,0.0,0.0,0.0,0.0,0.0,0.0,0.0,0.0,0.0,3.0,1.0,1.0
1715671900,120.0,0.0,0.12,0.0,0.0,0.0,0.0,0.0,2799.4523926,2799.4523926,0.0,0.0,0.0,-0.555,-199800.0,0.0,1.8,-179.1999969,-5.8000002,386.4932861,0.0,18.6000004,40.6561813,0.0,0.0,0.0,0.0,0.0,0.0,0.0,0.0,0.0,0.0,0.0,0.0,0.0,0.0,0.0,0.0,0.0,0.0,0.0,0.0,3.0,1.0,1.0
1715671901,120.0,0.0,0.12,0.0,0.0,0.0,0.0,0.0,2799.4523926,2799.4523926,0.0,0.0,0.0,-0.555,-199800.0,0.0,2.0,-179.1000061,-5.6999998,387.154541,0.0,18.6000004,40.6447983,0.0,0.0,0.0,0.0,0.0,0.0,0.0,0.0,0.0,0.0,0.0,0.0,0.0,0.0,0.0,0.0,0.0,0.0,0.0,0.0,3.0,1.0,1.0
1715671902,120.0,0.0,0.12,0.0,0.0,0.0,0.0,0.0,2799.4523926,2799.4523926,0.0,0.0,0.0,-0.555,-199800.0,0.0,1.8,-179.1999969,-5.8000002,387.598999,0.0,18.6000004,40.6334152,0.0,0.0,0.0,0.0,0.0,0.0,0.0,0.0,0.0,0.0,0.0,0.0,0.0,0.0,0.0,0.0,0.0,0.0,0.0,0.0,3.0,1.0,1.0
1715671903,120.0,0.0,0.12,0.0,0.0,0.0,0.0,0.0,2799.4467773,2799.4467773,0.0,0.0,0.0,-0.555,-199800.0,0.0,1.7,-179.1999969,-5.8000002,388.1574707,0.0,18.6000004,40.6334152,0.0,0.0,0.0,0.0,0.0,0.0,0.0,0.0,0.0,0.0,0.0,0.0,0.0,0.0,0.0,0.0,0.0,0.0,0.0,0.0,3.0,1.0,1.0
1715671904,120.0,0.0,0.12,0.0,0.0,0.0,0.0,0.0,2799.4467773,2799.4467773,0.0,0.0,0.0,-0.555,-199800.0,0.0,1.8,-179.3000031,-5.8000002,389.3314209,0.0,18.6000004,40.6334152,0.0,0.0,0.0,0.0,0.0,0.0,0.0,0.0,0.0,0.0,0.0,0.0,0.0,0.0,0.0,0.0,0.0,0.0,0.0,0.0,3.0,1.0,1.0
1715671905,120.0,0.0,0.12,0.0,0.0,0.0,0.0,0.0,2799.4467773,2799.4467773,0.0,0.0,0.0,-0.555,-199800.0,0.0,1.9,-179.1999969,-5.8000002,391.2001953,0.0,18.6000004,40.6334152,0.0,0.0,0.0,0.0,0.0,0.0,0.0,0.0,0.0,0.0,0.0,0.0,0.0,0.0,0.0,0.0,0.0,0.0,0.0,0.0,3.0,1.0,1.0
1715671906,120.0,0.0,0.12,0.0,0.0,0.0,0.0,0.0,2799.4467773,2799.4467773,0.0,0.0,0.0,-0.555,-199800.0,0.0,1.7,-179.1999969,-5.8000002,391.496582,0.0,18.6000004,40.6447983,0.0,0.0,0.0,0.0,0.0,0.0,0.0,0.0,0.0,0.0,0.0,0.0,0.0,0.0,0.0,0.0,0.0,0.0,0.0,0.0,3.0,1.0,1.0
1715671907,120.0,0.0,0.12,0.0,0.0,0.0,0.0,0.0,2799.4470215,2799.4470215,0.0,0.0,0.0,-0.555,-199800.0,0.0,1.9,-179.1999969,-5.8000002,391.5421143,0.0,18.6000004,40.6447983,0.0,0.0,0.0,0.0,0.0,0.0,0.0,0.0,0.0,0.0,0.0,0.0,0.0,0.0,0.0,0.0,0.0,0.0,0.0,0.0,3.0,1.0,1.0
1715671908,120.0,0.0,0.12,0.0,0.0,0.0,0.0,0.0,2799.4467773,2799.4467773,0.0,0.0,0.0,-0.555,-199800.0,0.0,1.9,-179.1999969,-5.8000002,391.8041992,0.0,18.6000004,40.6447983,0.0,0.0,0.0,0.0,0.0,0.0,0.0,0.0,0.0,0.0,0.0,0.0,0.0,0.0,0.0,0.0,0.0,0.0,0.0,0.0,3.0,1.0,1.0
1715671909,120.0,0.0,0.12,0.0,0.0,0.0,0.0,0.0,2799.4465332,2799.4465332,0.0,0.0,0.0,-0.555,-199800.0,0.0,1.9,-179.1999969,-5.8000002,393.9916992,0.0,18.5,40.6334152,0.0,0.0,0.0,0.0,0.0,0.0,0.0,0.0,0.0,0.0,0.0,0.0,0.0,0.0,0.0,0.0,0.0,0.0,0.0,0.0,3.0,1.0,1.0
1715671910,120.0,0.0,0.12,0.0,0.0,0.0,0.0,0.0,2799.4467773,2799.4467773,0.0,0.0,0.0,-0.555,-199800.0,0.0,1.9,-179.1999969,-5.8000002,394.9144287,0.0,18.6000004,40.6334152,0.0,0.0,0.0,0.0,0.0,0.0,0.0,0.0,0.0,0.0,0.0,0.0,0.0,0.0,0.0,0.0,0.0,0.0,0.0,0.0,3.0,1.0,1.0
1715671911,120.0,0.0,0.12,0.0,0.0,0.0,0.0,0.0,2799.4465332,2799.4465332,0.0,0.0,0.0,-0.555,-199800.0,0.0,1.9,-179.1999969,-5.8000002,395.244873,0.0,18.6000004,40.6334152,0.0,0.0,0.0,0.0,0.0,0.0,0.0,0.0,0.0,0.0,0.0,0.0,0.0,0.0,0.0,0.0,0.0,0.0,0.0,0.0,3.0,1.0,1.0
1715671912,120.0,0.0,0.12,0.0,0.0,0.0,0.0,0.0,2799.4465332,2799.4465332,0.0,0.0,0.0,-0.555,-199800.0,0.0,1.8,-179.1999969,-5.8000002,395.324585,0.0,18.6000004,40.6447983,0.0,0.0,0.0,0.0,0.0,0.0,0.0,0.0,0.0,0.0,0.0,0.0,0.0,0.0,0.0,0.0,0.0,0.0,0.0,0.0,3.0,1.0,1.0
1715671913,120.0,0.0,0.12,0.0,0.0,0.0,0.0,0.0,2799.4470215,2799.4470215,0.0,0.0,0.0,-0.555,-199800.0,0.0,1.9,-179.1999969,-5.8000002,395.5637207,0.0,18.6000004,40.6447983,0.0,0.0,0.0,0.0,0.0,0.0,0.0,0.0,0.0,0.0,0.0,0.0,0.0,0.0,0.0,0.0,0.0,0.0,0.0,0.0,3.0,1.0,1.0
1715671914,120.0,0.0,0.12,0.0,0.0,0.0,0.0,0.0,2799.4467773,2799.4467773,0.0,0.0,0.0,-0.555,-199800.0,0.0,1.8,-179.3000031,-5.8000002,396.4749756,0.0,18.6000004,40.6447983,0.0,0.0,0.0,0.0,0.0,0.0,0.0,0.0,0.0,0.0,0.0,0.0,0.0,0.0,0.0,0.0,0.0,0.0,0.0,0.0,3.0,1.0,1.0
1715671915,120.0,0.0,0.12,0.0,0.0,0.0,0.0,0.0,2799.4467773,2799.4467773,0.0,0.0,0.0,-0.555,-199800.0,0.0,1.9,-179.1000061,-5.8000002,396.8621826,0.0,18.6000004,40.6334152,0.0,0.0,0.0,0.0,0.0,0.0,0.0,0.0,0.0,0.0,0.0,0.0,0.0,0.0,0.0,0.0,0.0,0.0,0.0,0.0,3.0,1.0,1.0
1715671916,120.0,0.0,0.12,0.0,0.0,0.0,0.0,0.0,2799.4467773,2799.4467773,0.0,0.0,0.0,-0.555,-199800.0,0.0,1.8,-179.1999969,-5.8000002,397.6025391,0.0,18.6000004,40.622036,0.0,0.0,0.0,0.0,0.0,0.0,0.0,0.0,0.0,0.0,0.0,0.0,0.0,0.0,0.0,0.0,0.0,0.0,0.0,0.0,3.0,1.0,1.0
1715671917,120.0,0.0,0.12,0.0,0.0,0.0,0.0,0.0,2799.4465332,2799.4465332,0.0,0.0,0.0,-0.555,-199800.0,0.0,1.8,-179.1999969,-5.8000002,400.4039307,0.0,18.6000004,40.622036,0.0,0.0,0.0,0.0,0.0,0.0,0.0,0.0,0.0,0.0,0.0,0.0,0.0,0.0,0.0,0.0,0.0,0.0,0.0,0.0,3.0,1.0,1.0
1715671918,120.0,0.0,0.12,0.0,0.0,0.0,0.0,0.0,2799.4467773,2799.4467773,0.0,0.0,0.0,-0.555,-199800.0,0.0,1.9,-179.1999969,-5.9000001,400.8024902,0.0,18.6000004,40.6334152,0.0,0.0,0.0,0.0,0.0,0.0,0.0,0.0,0.0,0.0,0.0,0.0,0.0,0.0,0.0,0.0,0.0,0.0,0.0,0.0,3.0,1.0,1.0
1715671919,120.0,0.0,0.12,0.0,0.0,0.0,0.0,0.0,2799.4472656,2799.4472656,0.0,0.0,0.0,-0.555,-199800.0,0.0,1.6,-179.1000061,-5.8000002,401.65625,0.0,18.6000004,40.6447983,0.0,0.0,0.0,0.0,0.0,0.0,0.0,0.0,0.0,0.0,0.0,0.0,0.0,0.0,0.0,0.0,0.0,0.0,0.0,0.0,3.0,1.0,1.0
1715671920,120.0,0.0,0.12,0.0,0.0,0.0,0.0,0.0,2799.4526367,2799.4526367,0.0,0.0,0.0,-0.555,-199800.0,0.0,1.7,-179.1999969,-5.8000002,401.8840332,0.0,18.6000004,40.6447983,0.0,0.0,0.0,0.0,0.0,0.0,0.0,0.0,0.0,0.0,0.0,0.0,0.0,0.0,0.0,0.0,0.0,0.0,0.0,0.0,3.0,1.0,1.0
1715671921,120.0,0.0,0.12,0.0,0.0,0.0,0.0,0.0,2799.4523926,2799.4523926,0.0,0.0,0.0,-0.555,-199800.0,0.0,1.8,-179.3000031,-5.8000002,401.9295654,0.0,18.6000004,40.6334152,0.0,0.0,0.0,0.0,0.0,0.0,0.0,0.0,0.0,0.0,0.0,0.0,0.0,0.0,0.0,0.0,0.0,0.0,0.0,0.0,3.0,1.0,1.0
1715671922,120.0,0.0,0.12,0.0,0.0,0.0,0.0,0.0,2799.4519043,2799.4519043,0.0,0.0,0.0,-0.555,-199800.0,0.0,2.0999999,-179.1999969,-5.8000002,403.3640137,0.0,18.6000004,40.622036,0.0,0.0,0.0,0.0,0.0,0.0,0.0,0.0,0.0,0.0,0.0,0.0,0.0,0.0,0.0,0.0,0.0,0.0,0.0,0.0,3.0,1.0,1.0
1715671923,120.0,0.0,0.12,0.0,0.0,0.0,0.0,0.0,2799.4523926,2799.4523926,0.0,0.0,0.0,-0.555,-199800.0,0.0,1.8,-179.1999969,-5.8000002,403.5461426,0.0,18.6000004,40.622036,0.0,0.0,0.0,0.0,0.0,0.0,0.0,0.0,0.0,0.0,0.0,0.0,0.0,0.0,0.0,0.0,0.0,0.0,0.0,0.0,3.0,1.0,1.0
1715671924,120.0,0.0,0.12,0.0,0.0,0.0,0.0,0.0,2799.4521484,2799.4521484,0.0,0.0,0.0,-0.555,-199800.0,0.0,1.9,-179.1999969,-5.8000002,404.5478516,0.0,18.6000004,40.622036,0.0,0.0,0.0,0.0,0.0,0.0,0.0,0.0,0.0,0.0,0.0,0.0,0.0,0.0,0.0,0.0,0.0,0.0,0.0,0.0,3.0,1.0,1.0
1715671925,120.0,0.0,0.12,0.0,0.0,0.0,0.0,0.0,2799.4521484,2799.4521484,0.0,0.0,0.0,-0.555,-199800.0,0.0,1.8,-179.1999969,-5.8000002,404.9007568,0.0,18.6000004,40.6334152,0.0,0.0,0.0,0.0,0.0,0.0,0.0,0.0,0.0,0.0,0.0,0.0,0.0,0.0,0.0,0.0,0.0,0.0,0.0,0.0,3.0,0.0,1.0
1715671926,120.0,0.0,0.12,0.0,0.0,0.0,0.0,0.0,2799.4526367,2799.4526367,0.0,0.0,0.0,-0.555,-199800.0,0.0,1.9,-179.3000031,-5.8000002,405.7316895,0.0,18.6000004,40.6447983,0.0,0.0,0.0,0.0,0.0,0.0,0.0,0.0,0.0,0.0,0.0,0.0,0.0,0.0,0.0,0.0,0.0,0.0,0.0,0.0,3.0,1.0,1.0
1715671927,120.0,0.0,0.12,0.0,0.0,0.0,0.0,0.0,2799.4521484,2799.4521484,0.0,0.0,0.0,-0.555,-199800.0,0.0,1.9,-179.1999969,-5.6999998,406.5397949,0.0,18.6000004,40.622036,0.0,0.0,0.0,0.0,0.0,0.0,0.0,0.0,0.0,0.0,0.0,0.0,0.0,0.0,0.0,0.0,0.0,0.0,0.0,0.0,3.0,1.0,1.0
1715671928,120.0,0.0,0.12,0.0,0.0,0.0,0.0,0.0,2799.4467773,2799.4467773,0.0,0.0,0.0,-0.555,-199800.0,0.0,1.9,-179.1999969,-5.6999998,407.1314697,0.0,18.6000004,40.622036,0.0,0.0,0.0,0.0,0.0,0.0,0.0,0.0,0.0,0.0,0.0,0.0,0.0,0.0,0.0,0.0,0.0,0.0,0.0,0.0,3.0,1.0,1.0
1715671929,120.0,0.0,0.12,0.0,0.0,0.0,0.0,0.0,2799.4467773,2799.4467773,0.0,0.0,0.0,-0.555,-199800.0,0.0,1.9,-179.3000031,-5.8000002,407.814209,0.0,18.6000004,40.622036,0.0,0.0,0.0,0.0,0.0,0.0,0.0,0.0,0.0,0.0,0.0,0.0,0.0,0.0,0.0,0.0,0.0,0.0,0.0,0.0,3.0,1.0,1.0
1715671930,120.0,0.0,0.12,0.0,0.0,0.0,0.0,0.0,2799.4467773,2799.4467773,0.0,0.0,0.0,-0.555,-199800.0,0.0,1.9,-179.1000061,-5.8000002,408.7132568,0.0,18.6000004,40.622036,0.0,0.0,0.0,0.0,0.0,0.0,0.0,0.0,0.0,0.0,0.0,0.0,0.0,0.0,0.0,0.0,0.0,0.0,0.0,0.0,3.0,1.0,1.0
1715671931,120.0,0.0,0.12,0.0,0.0,0.0,0.0,0.0,2799.4465332,2799.4465332,0.0,0.0,0.0,-0.555,-199800.0,0.0,1.7,-179.0,-5.8000002,410.7156982,0.0,18.6000004,40.622036,0.0,0.0,0.0,0.0,0.0,0.0,0.0,0.0,0.0,0.0,0.0,0.0,0.0,0.0,0.0,0.0,0.0,0.0,0.0,0.0,3.0,1.0,1.0
1715671932,120.0,0.0,0.12,0.0,0.0,0.0,0.0,0.0,2799.4470215,2799.4470215,0.0,0.0,0.0,-0.555,-199800.0,0.0,1.8,-179.0,-5.8000002,411.2049561,0.0,18.6000004,40.6447983,0.0,0.0,0.0,0.0,0.0,0.0,0.0,0.0,0.0,0.0,0.0,0.0,0.0,0.0,0.0,0.0,0.0,0.0,0.0,0.0,3.0,1.0,1.0
1715671933,120.0,0.0,0.12,0.0,0.0,0.0,0.0,0.0,2799.4470215,2799.4470215,0.0,0.0,0.0,-0.555,-199800.0,0.0,1.7,-179.0,-5.9000001,411.512207,0.0,18.6000004,40.622036,0.0,0.0,0.0,0.0,0.0,0.0,0.0,0.0,0.0,0.0,0.0,0.0,0.0,0.0,0.0,0.0,0.0,0.0,0.0,0.0,3.0,1.0,1.0
1715671934,120.0,0.0,0.12,0.0,0.0,0.0,0.0,0.0,2799.4467773,2799.4467773,0.0,0.0,0.0,-0.555,-199800.0,0.0,1.8,-179.1000061,-5.9000001,412.171875,0.0,18.6000004,40.6106529,0.0,0.0,0.0,0.0,0.0,0.0,0.0,0.0,0.0,0.0,0.0,0.0,0.0,0.0,0.0,0.0,0.0,0.0,0.0,0.0,3.0,1.0,1.0
1715671935,120.0,0.0,0.12,0.0,0.0,0.0,0.0,0.0,2799.4467773,2799.4467773,0.0,0.0,0.0,-0.555,-199800.0,0.0,1.8,-179.1000061,-5.9000001,412.4221191,0.0,18.6000004,40.6106529,0.0,0.0,0.0,0.0,0.0,0.0,0.0,0.0,0.0,0.0,0.0,0.0,0.0,0.0,0.0,0.0,0.0,0.0,0.0,0.0,3.0,1.0,1.0
1715671936,120.0,0.0,0.12,0.0,0.0,0.0,0.0,0.0,2799.4470215,2799.4470215,0.0,0.0,0.0,-0.555,-199800.0,0.0,1.7,-179.1000061,-5.9000001,413.696167,0.0,18.6000004,40.6106529,0.0,0.0,0.0,0.0,0.0,0.0,0.0,0.0,0.0,0.0,0.0,0.0,0.0,0.0,0.0,0.0,0.0,0.0,0.0,0.0,3.0,1.0,1.0
1715671937,120.0,0.0,0.12,0.0,0.0,0.0,0.0,0.0,2799.4519043,2799.4519043,0.0,0.0,0.0,-0.555,-199800.0,0.0,1.8,-179.0,-5.9000001,413.8326416,0.0,18.6000004,40.6106529,0.0,0.0,0.0,0.0,0.0,0.0,0.0,0.0,0.0,0.0,0.0,0.0,0.0,0.0,0.0,0.0,0.0,0.0,0.0,0.0,3.0,1.0,1.0
1715671938,120.0,0.0,0.12,0.0,0.0,0.0,0.0,0.0,2799.4526367,2799.4526367,0.0,0.0,0.0,-0.555,-199800.0,0.0,1.8,-178.8999939,-5.9000001,414.7993164,0.0,18.6000004,40.622036,0.0,0.0,0.0,0.0,0.0,0.0,0.0,0.0,0.0,0.0,0.0,0.0,0.0,0.0,0.0,0.0,0.0,0.0,0.0,0.0,3.0,1.0,1.0
1715671939,120.0,0.0,0.12,0.0,0.0,0.0,0.0,0.0,2799.4526367,2799.4526367,0.0,0.0,0.0,-0.555,-199800.0,0.0,1.9,-179.0,-5.9000001,415.1519775,0.0,18.6000004,40.6447983,0.0,0.0,0.0,0.0,0.0,0.0,0.0,0.0,0.0,0.0,0.0,0.0,0.0,0.0,0.0,0.0,0.0,0.0,0.0,0.0,3.0,1.0,1.0
1715671940,120.0,0.0,0.12,0.0,0.0,0.0,0.0,0.0,2799.4523926,2799.4523926,0.0,0.0,0.0,-0.555,-199800.0,0.0,1.8,-179.0,-5.8000002,416.3460693,0.0,18.5,40.6106529,0.0,0.0,0.0,0.0,0.0,0.0,0.0,0.0,0.0,0.0,0.0,0.0,0.0,0.0,0.0,0.0,0.0,0.0,0.0,0.0,3.0,1.0,1.0
1715671941,120.0,0.0,0.12,0.0,0.0,0.0,0.0,0.0,2799.4521484,2799.4521484,0.0,0.0,0.0,-0.555,-199800.0,0.0,1.8,-179.0,-5.9000001,416.4257812,0.0,18.6000004,40.5992699,0.0,0.0,0.0,0.0,0.0,0.0,0.0,0.0,0.0,0.0,0.0,0.0,0.0,0.0,0.0,0.0,0.0,0.0,0.0,0.0,3.0,1.0,1.0
1715671942,120.0,0.0,0.12,0.0,0.0,0.0,0.0,0.0,2799.4521484,2799.4521484,0.0,0.0,0.0,-0.555,-199800.0,0.0,1.8,-179.1000061,-5.9000001,417.5627441,0.0,18.6000004,40.6106529,0.0,0.0,0.0,0.0,0.0,0.0,0.0,0.0,0.0,0.0,0.0,0.0,0.0,0.0,0.0,0.0,0.0,0.0,0.0,0.0,3.0,1.0,1.0
1715671943,120.0,0.0,0.12,0.0,0.0,0.0,0.0,0.0,2799.4523926,2799.4523926,0.0,0.0,0.0,-0.555,-199800.0,0.0,2.0,-179.1000061,-5.8000002,419.0068359,0.0,18.6000004,40.6106529,0.0,0.0,0.0,0.0,0.0,0.0,0.0,0.0,0.0,0.0,0.0,0.0,0.0,0.0,0.0,0.0,0.0,0.0,0.0,0.0,3.0,1.0,1.0
1715671944,120.0,0.0,0.12,0.0,0.0,0.0,0.0,0.0,2799.4467773,2799.4467773,0.0,0.0,0.0,-0.555,-199800.0,0.0,1.8,-179.1000061,-5.9000001,419.8482666,0.0,18.6000004,40.622036,0.0,0.0,0.0,0.0,0.0,0.0,0.0,0.0,0.0,0.0,0.0,0.0,0.0,0.0,0.0,0.0,0.0,0.0,0.0,0.0,3.0,1.0,1.0
1715671945,120.0,0.0,0.12,0.0,0.0,0.0,0.0,0.0,2799.4467773,2799.4467773,0.0,0.0,0.0,-0.555,-199800.0,0.0,1.8,-178.8999939,-5.9000001,420.5529785,0.0,18.6000004,40.6447983,0.0,0.0,0.0,0.0,0.0,0.0,0.0,0.0,0.0,0.0,0.0,0.0,0.0,0.0,0.0,0.0,0.0,0.0,0.0,0.0,3.0,1.0,1.0
1715671946,120.0,0.0,0.12,0.0,0.0,0.0,0.0,0.0,2799.4467773,2799.4467773,0.0,0.0,0.0,-0.555,-199800.0,0.0,1.8,-179.1999969,-5.9000001,420.7121582,0.0,18.6000004,40.622036,0.0,0.0,0.0,0.0,0.0,0.0,0.0,0.0,0.0,0.0,0.0,0.0,0.0,0.0,0.0,0.0,0.0,0.0,0.0,0.0,3.0,1.0,1.0
1715671947,120.0,0.0,0.12,0.0,0.0,0.0,0.0,0.0,2799.4467773,2799.4467773,0.0,0.0,0.0,-0.555,-199800.0,0.0,1.9,-179.1000061,-5.9000001,420.7575684,0.0,18.6000004,40.6106529,0.0,0.0,0.0,0.0,0.0,0.0,0.0,0.0,0.0,0.0,0.0,0.0,0.0,0.0,0.0,0.0,0.0,0.0,0.0,0.0,3.0,1.0,1.0
1715671948,120.0,0.0,0.12,0.0,0.0,0.0,0.0,0.0,2799.4465332,2799.4465332,0.0,0.0,0.0,-0.555,-199800.0,0.0,1.6,-179.1999969,-5.9000001,421.9626465,0.0,18.6000004,40.6106529,0.0,0.0,0.0,0.0,0.0,0.0,0.0,0.0,0.0,0.0,0.0,0.0,0.0,0.0,0.0,0.0,0.0,0.0,0.0,0.0,3.0,1.0,1.0
1715671949,120.0,0.0,0.12,0.0,0.0,0.0,0.0,0.0,2799.4470215,2799.4470215,0.0,0.0,0.0,-0.555,-199800.0,0.0,1.8,-179.1000061,-5.9000001,422.0307617,0.0,18.5,40.6106529,0.0,0.0,0.0,0.0,0.0,0.0,0.0,0.0,0.0,0.0,0.0,0.0,0.0,0.0,0.0,0.0,0.0,0.0,0.0,0.0,3.0,1.0,1.0
1715671950,120.0,0.0,0.12,0.0,0.0,0.0,0.0,0.0,2799.4465332,2799.4465332,0.0,0.0,0.0,-0.555,-199800.0,0.0,2.0,-179.1000061,-5.9000001,423.0081787,0.0,18.6000004,40.622036,0.0,0.0,0.0,0.0,0.0,0.0,0.0,0.0,0.0,0.0,0.0,0.0,0.0,0.0,0.0,0.0,0.0,0.0,0.0,0.0,3.0,1.0,1.0
1715671951,120.0,0.0,0.12,0.0,0.0,0.0,0.0,0.0,2799.4470215,2799.4470215,0.0,0.0,0.0,-0.555,-199800.0,0.0,1.7,-179.1000061,-5.8000002,423.1446533,0.0,18.6000004,40.6447983,0.0,0.0,0.0,0.0,0.0,0.0,0.0,0.0,0.0,0.0,0.0,0.0,0.0,0.0,0.0,0.0,0.0,0.0,0.0,0.0,3.0,1.0,1.0
1715671952,120.0,0.0,0.12,0.0,0.0,0.0,0.0,0.0,2799.4467773,2799.4467773,0.0,0.0,0.0,-0.555,-199800.0,0.0,1.8,-178.8999939,-5.8000002,424.4516602,0.0,18.5,40.6334152,0.0,0.0,0.0,0.0,0.0,0.0,0.0,0.0,0.0,0.0,0.0,0.0,0.0,0.0,0.0,0.0,0.0,0.0,0.0,0.0,3.0,1.0,1.0
1715671953,120.0,0.0,0.12,0.0,0.0,0.0,0.0,0.0,2799.4467773,2799.4467773,0.0,0.0,0.0,-0.555,-199800.0,0.0,1.7,-179.1000061,-5.8000002,425.2471924,0.0,18.5,40.622036,0.0,0.0,0.0,0.0,0.0,0.0,0.0,0.0,0.0,0.0,0.0,0.0,0.0,0.0,0.0,0.0,0.0,0.0,0.0,0.0,3.0,1.0,1.0
1715671954,120.0,0.0,0.12,0.0,0.0,0.0,0.0,0.0,2799.4467773,2799.4467773,0.0,0.0,0.0,-0.555,-199800.0,0.0,1.8,-179.1000061,-5.8000002,425.3835449,0.0,18.5,40.6106529,0.0,0.0,0.0,0.0,0.0,0.0,0.0,0.0,0.0,0.0,0.0,0.0,0.0,0.0,0.0,0.0,0.0,0.0,0.0,0.0,3.0,1.0,1.0
1715671955,120.0,0.0,0.12,0.0,0.0,0.0,0.0,0.0,2799.4467773,2799.4467773,0.0,0.0,0.0,-0.555,-199800.0,0.0,1.7,-179.1999969,-5.9000001,426.9857178,0.0,18.5,40.6106529,0.0,0.0,0.0,0.0,0.0,0.0,0.0,0.0,0.0,0.0,0.0,0.0,0.0,0.0,0.0,0.0,0.0,0.0,0.0,0.0,3.0,1.0,1.0
1715671956,120.0,0.0,0.12,0.0,0.0,0.0,0.0,0.0,2799.4462891,2799.4462891,0.0,0.0,0.0,-0.555,-199800.0,0.0,1.8,-179.0,-5.9000001,428.746582,0.0,18.5,40.622036,0.0,0.0,0.0,0.0,0.0,0.0,0.0,0.0,0.0,0.0,0.0,0.0,0.0,0.0,0.0,0.0,0.0,0.0,0.0,0.0,3.0,1.0,1.0
1715671957,120.0,0.0,0.12,0.0,0.0,0.0,0.0,0.0,2799.4467773,2799.4467773,0.0,0.0,0.0,-0.555,-199800.0,0.0,1.7,-179.1000061,-5.8000002,429.0419922,0.0,18.6000004,40.6334152,0.0,0.0,0.0,0.0,0.0,0.0,0.0,0.0,0.0,0.0,0.0,0.0,0.0,0.0,0.0,0.0,0.0,0.0,0.0,0.0,3.0,1.0,1.0
1715671958,120.0,0.0,0.12,0.0,0.0,0.0,0.0,0.0,2799.4467773,2799.4467773,0.0,0.0,0.0,-0.555,-199800.0,0.0,1.8,-179.0,-5.9000001,429.2010498,0.0,18.6000004,40.6334152,0.0,0.0,0.0,0.0,0.0,0.0,0.0,0.0,0.0,0.0,0.0,0.0,0.0,0.0,0.0,0.0,0.0,0.0,0.0,0.0,3.0,1.0,1.0
1715671959,120.0,0.0,0.12,0.0,0.0,0.0,0.0,0.0,2799.4470215,2799.4470215,0.0,0.0,0.0,-0.555,-199800.0,0.0,2.0,-178.8999939,-5.8000002,429.2124023,0.0,18.6000004,40.6334152,0.0,0.0,0.0,0.0,0.0,0.0,0.0,0.0,0.0,0.0,0.0,0.0,0.0,0.0,0.0,0.0,0.0,0.0,0.0,0.0,3.0,1.0,1.0
1715671960,120.0,0.0,0.12,0.0,0.0,0.0,0.0,0.0,2799.4467773,2799.4467773,0.0,0.0,0.0,-0.555,-199800.0,0.0,1.8,-179.0,-5.9000001,429.7349854,0.0,18.6000004,40.6106529,0.0,0.0,0.0,0.0,0.0,0.0,0.0,0.0,0.0,0.0,0.0,0.0,0.0,0.0,0.0,0.0,0.0,0.0,0.0,0.0,3.0,1.0,1.0
1715671961,120.0,0.0,0.12,0.0,0.0,0.0,0.0,0.0,2799.4467773,2799.4467773,0.0,0.0,0.0,-0.555,-199800.0,0.0,1.8,-179.0,-5.9000001,430.7005615,0.0,18.6000004,40.6106529,0.0,0.0,0.0,0.0,0.0,0.0,0.0,0.0,0.0,0.0,0.0,0.0,0.0,0.0,0.0,0.0,0.0,0.0,0.0,0.0,3.0,1.0,1.0
1715671962,120.0,0.0,0.12,0.0,0.0,0.0,0.0,0.0,2799.4465332,2799.4465332,0.0,0.0,0.0,-0.555,-199800.0,0.0,1.7,-179.0,-5.8000002,431.0300293,0.0,18.6000004,40.6106529,0.0,0.0,0.0,0.0,0.0,0.0,0.0,0.0,0.0,0.0,0.0,0.0,0.0,0.0,0.0,0.0,0.0,0.0,0.0,0.0,3.0,1.0,1.0
1715671963,120.0,0.0,0.12,0.0,0.0,0.0,0.0,0.0,2799.4465332,2799.4465332,0.0,0.0,0.0,-0.555,-199800.0,0.0,1.8,-179.0,-5.8000002,432.302002,0.0,18.6000004,40.6334152,0.0,0.0,0.0,0.0,0.0,0.0,0.0,0.0,0.0,0.0,0.0,0.0,0.0,0.0,0.0,0.0,0.0,0.0,0.0,0.0,3.0,1.0,1.0
1715671964,120.0,0.0,0.12,0.0,0.0,0.0,0.0,0.0,2799.4526367,2799.4526367,0.0,0.0,0.0,-0.555,-199800.0,0.0,2.0,-179.3000031,-5.9000001,432.59729,0.0,18.6000004,40.6334152,0.0,0.0,0.0,0.0,0.0,0.0,0.0,0.0,0.0,0.0,0.0,0.0,0.0,0.0,0.0,0.0,0.0,0.0,0.0,0.0,3.0,1.0,1.0
1715671965,120.0,0.0,0.12,0.0,0.0,0.0,0.0,0.0,2799.4523926,2799.4523926,0.0,0.0,0.0,-0.555,-199800.0,0.0,1.8,-179.1000061,-5.9000001,433.1765137,0.0,18.6000004,40.6334152,0.0,0.0,0.0,0.0,0.0,0.0,0.0,0.0,0.0,0.0,0.0,0.0,0.0,0.0,0.0,0.0,0.0,0.0,0.0,0.0,3.0,1.0,1.0
1715671966,120.0,0.0,0.12,0.0,0.0,0.0,0.0,0.0,2799.4523926,2799.4523926,0.0,0.0,0.0,-0.555,-199800.0,0.0,1.8,-179.0,-5.8000002,433.4945068,0.0,18.6000004,40.6106529,0.0,0.0,0.0,0.0,0.0,0.0,0.0,0.0,0.0,0.0,0.0,0.0,0.0,0.0,0.0,0.0,0.0,0.0,0.0,0.0,3.0,1.0,1.0
1715671967,120.0,0.0,0.12,0.0,0.0,0.0,0.0,0.0,2799.4523926,2799.4523926,0.0,0.0,0.0,-0.555,-199800.0,0.0,1.8,-179.0,-5.8000002,434.0168457,0.0,18.6000004,40.5992699,0.0,0.0,0.0,0.0,0.0,0.0,0.0,0.0,0.0,0.0,0.0,0.0,0.0,0.0,0.0,0.0,0.0,0.0,0.0,0.0,3.0,1.0,1.0
1715671968,120.0,0.0,0.12,0.0,0.0,0.0,0.0,0.0,2799.4526367,2799.4526367,0.0,0.0,0.0,-0.555,-199800.0,0.0,1.8,-179.0,-5.9000001,434.1530762,0.0,18.6000004,40.6106529,0.0,0.0,0.0,0.0,0.0,0.0,0.0,0.0,0.0,0.0,0.0,0.0,0.0,0.0,0.0,0.0,0.0,0.0,0.0,0.0,3.0,1.0,1.0
1715671969,120.0,0.0,0.12,0.0,0.0,0.0,0.0,0.0,2799.4521484,2799.4521484,0.0,0.0,0.0,-0.555,-199800.0,0.0,1.8,-179.1000061,-5.9000001,435.9018555,0.0,18.6000004,40.6106529,0.0,0.0,0.0,0.0,0.0,0.0,0.0,0.0,0.0,0.0,0.0,0.0,0.0,0.0,0.0,0.0,0.0,0.0,0.0,0.0,3.0,1.0,1.0
1715671970,120.0,0.0,0.12,0.0,0.0,0.0,0.0,0.0,2799.4526367,2799.4526367,0.0,0.0,0.0,-0.555,-199800.0,0.0,1.8,-179.0,-5.9000001,438.5810547,0.0,18.6000004,40.6334152,0.0,0.0,0.0,0.0,0.0,0.0,0.0,0.0,0.0,0.0,0.0,0.0,0.0,0.0,0.0,0.0,0.0,0.0,0.0,0.0,3.0,1.0,1.0
1715671971,120.0,0.0,0.12,0.0,0.0,0.0,0.0,0.0,2799.4523926,2799.4523926,0.0,0.0,0.0,-0.555,-199800.0,0.0,2.0,-178.8999939,-5.9000001,438.7172852,0.0,18.6000004,40.6447983,0.0,0.0,0.0,0.0,0.0,0.0,0.0,0.0,0.0,0.0,0.0,0.0,0.0,0.0,0.0,0.0,0.0,0.0,0.0,0.0,3.0,1.0,1.0
1715671972,120.0,0.0,0.12,0.0,0.0,0.0,0.0,0.0,2799.4470215,2799.4470215,0.0,0.0,0.0,-0.555,-199800.0,0.0,1.8,-179.1000061,-5.9000001,439.1826172,0.0,18.6000004,40.6106529,0.0,0.0,0.0,0.0,0.0,0.0,0.0,0.0,0.0,0.0,0.0,0.0,0.0,0.0,0.0,0.0,0.0,0.0,0.0,0.0,3.0,1.0,1.0
1715671973,120.0,0.0,0.12,0.0,0.0,0.0,0.0,0.0,2799.4465332,2799.4465332,0.0,0.0,0.0,-0.555,-199800.0,0.0,1.8,-179.1000061,-5.9000001,439.9998779,0.0,18.6000004,40.6106529,0.0,0.0,0.0,0.0,0.0,0.0,0.0,0.0,0.0,0.0,0.0,0.0,0.0,0.0,0.0,0.0,0.0,0.0,0.0,0.0,3.0,1.0,1.0
1715671974,120.0,0.0,0.12,0.0,0.0,0.0,0.0,0.0,2799.4467773,2799.4467773,0.0,0.0,0.0,-0.555,-199800.0,0.0,1.8,-179.1000061,-5.9000001,440.4766846,0.0,18.6000004,40.6106529,0.0,0.0,0.0,0.0,0.0,0.0,0.0,0.0,0.0,0.0,0.0,0.0,0.0,0.0,0.0,0.0,0.0,0.0,0.0,0.0,3.0,1.0,1.0
1715671975,120.0,0.0,0.12,0.0,0.0,0.0,0.0,0.0,2799.4465332,2799.4465332,0.0,0.0,0.0,-0.555,-199800.0,0.0,1.7,-178.8999939,-5.9000001,440.5334473,0.0,18.6000004,40.6106529,0.0,0.0,0.0,0.0,0.0,0.0,0.0,0.0,0.0,0.0,0.0,0.0,0.0,0.0,0.0,0.0,0.0,0.0,0.0,0.0,3.0,1.0,1.0
1715671976,120.0,0.0,0.12,0.0,0.0,0.0,0.0,0.0,2799.4465332,2799.4465332,0.0,0.0,0.0,-0.555,-199800.0,0.0,1.9,-179.1000061,-5.8000002,440.8057861,0.0,18.6000004,40.622036,0.0,0.0,0.0,0.0,0.0,0.0,0.0,0.0,0.0,0.0,0.0,0.0,0.0,0.0,0.0,0.0,0.0,0.0,0.0,0.0,3.0,1.0,1.0
1715671977,120.0,0.0,0.12,0.0,0.0,0.0,0.0,0.0,2799.4467773,2799.4467773,0.0,0.0,0.0,-0.555,-199800.0,0.0,1.8,-179.0,-5.8000002,441.7591553,0.0,18.6000004,40.6447983,0.0,0.0,0.0,0.0,0.0,0.0,0.0,0.0,0.0,0.0,0.0,0.0,0.0,0.0,0.0,0.0,0.0,0.0,0.0,0.0,3.0,1.0,1.0
1715671978,120.0,0.0,0.12,0.0,0.0,0.0,0.0,0.0,2799.4467773,2799.4467773,0.0,0.0,0.0,-0.555,-199800.0,0.0,2.0,-179.0,-5.8000002,443.2116699,0.0,18.6000004,40.622036,0.0,0.0,0.0,0.0,0.0,0.0,0.0,0.0,0.0,0.0,0.0,0.0,0.0,0.0,0.0,0.0,0.0,0.0,0.0,0.0,3.0,1.0,1.0
1715671979,120.0,0.0,0.12,0.0,0.0,0.0,0.0,0.0,2799.4467773,2799.4467773,0.0,0.0,0.0,-0.555,-199800.0,0.0,1.9,-179.0,-5.8000002,443.3137207,0.0,18.5,40.6106529,0.0,0.0,0.0,0.0,0.0,0.0,0.0,0.0,0.0,0.0,0.0,0.0,0.0,0.0,0.0,0.0,0.0,0.0,0.0,0.0,3.0,1.0,1.0
1715671980,120.0,0.0,0.12,0.0,0.0,0.0,0.0,0.0,2799.4467773,2799.4467773,0.0,0.0,0.0,-0.555,-199800.0,0.0,1.9,-179.3000031,-5.9000001,445.1972656,0.0,18.5,40.6106529,0.0,0.0,0.0,0.0,0.0,0.0,0.0,0.0,0.0,0.0,0.0,0.0,0.0,0.0,0.0,0.0,0.0,0.0,0.0,0.0,3.0,1.0,1.0
1715671981,120.0,0.0,0.12,0.0,0.0,0.0,0.0,0.0,2799.435791,2799.435791,0.0,0.0,0.0,-0.555,-199800.0,0.0,1.8,-179.1000061,-5.8000002,445.9460449,0.0,18.6000004,40.6106529,0.0,0.0,0.0,0.0,0.0,0.0,0.0,0.0,0.0,0.0,0.0,0.0,0.0,0.0,0.0,0.0,0.0,0.0,0.0,0.0,3.0,1.0,1.0
1715671982,120.0,0.0,0.12,0.0,0.0,0.0,0.0,0.0,2799.4519043,2799.4519043,0.0,0.0,0.0,-0.555,-199800.0,0.0,1.8,-179.1000061,-5.8000002,446.286377,0.0,18.6000004,40.622036,0.0,0.0,0.0,0.0,0.0,0.0,0.0,0.0,0.0,0.0,0.0,0.0,0.0,0.0,0.0,0.0,0.0,0.0,0.0,0.0,3.0,1.0,1.0
1715671983,120.0,0.0,0.12,0.0,0.0,0.0,0.0,0.0,2799.4475098,2799.4475098,0.0,0.0,0.0,-0.555,-199800.0,0.0,1.8,-179.1000061,-5.9000001,446.3204346,0.0,18.6000004,40.6447983,0.0,0.0,0.0,0.0,0.0,0.0,0.0,0.0,0.0,0.0,0.0,0.0,0.0,0.0,0.0,0.0,0.0,0.0,0.0,0.0,3.0,1.0,1.0
1715671984,120.0,0.0,0.12,0.0,0.0,0.0,0.0,0.0,2799.4467773,2799.4467773,0.0,0.0,0.0,-0.555,-199800.0,0.0,1.9,-179.1999969,-5.9000001,446.8990479,0.0,18.6000004,40.6334152,0.0,0.0,0.0,0.0,0.0,0.0,0.0,0.0,0.0,0.0,0.0,0.0,0.0,0.0,0.0,0.0,0.0,0.0,0.0,0.0,3.0,1.0,1.0
1715671985,120.0,0.0,0.12,0.0,0.0,0.0,0.0,0.0,2799.4467773,2799.4467773,0.0,0.0,0.0,-0.555,-199800.0,0.0,1.8,-179.3000031,-5.9000001,447.5909424,0.0,18.5,40.622036,0.0,0.0,0.0,0.0,0.0,0.0,0.0,0.0,0.0,0.0,0.0,0.0,0.0,0.0,0.0,0.0,0.0,0.0,0.0,0.0,3.0,1.0,1.0
1715671986,120.0,0.0,0.12,0.0,0.0,0.0,0.0,0.0,2799.4465332,2799.4465332,0.0,0.0,0.0,-0.555,-199800.0,0.0,1.8,-179.1000061,-5.9000001,447.9765625,0.0,18.5,40.6106529,0.0,0.0,0.0,0.0,0.0,0.0,0.0,0.0,0.0,0.0,0.0,0.0,0.0,0.0,0.0,0.0,0.0,0.0,0.0,0.0,3.0,1.0,1.0
1715671987,120.0,0.0,0.12,0.0,0.0,0.0,0.0,0.0,2799.4467773,2799.4467773,0.0,0.0,0.0,-0.555,-199800.0,0.0,1.9,-178.8999939,-5.8000002,448.8613281,0.0,18.5,40.6106529,0.0,0.0,0.0,0.0,0.0,0.0,0.0,0.0,0.0,0.0,0.0,0.0,0.0,0.0,0.0,0.0,0.0,0.0,0.0,0.0,3.0,1.0,1.0
1715671988,120.0,0.0,0.12,0.0,0.0,0.0,0.0,0.0,2799.4467773,2799.4467773,0.0,0.0,0.0,-0.555,-199800.0,0.0,1.8,-179.1999969,-5.8000002,448.8840332,0.0,18.5,40.622036,0.0,0.0,0.0,0.0,0.0,0.0,0.0,0.0,0.0,0.0,0.0,0.0,0.0,0.0,0.0,0.0,0.0,0.0,0.0,0.0,3.0,1.0,1.0
1715671989,120.0,0.0,0.12,0.0,0.0,0.0,0.0,0.0,2799.4467773,2799.4467773,0.0,0.0,0.0,-0.555,-199800.0,0.0,1.8,-179.1000061,-5.8000002,449.2357178,0.0,18.5,40.6334152,0.0,0.0,0.0,0.0,0.0,0.0,0.0,0.0,0.0,0.0,0.0,0.0,0.0,0.0,0.0,0.0,0.0,0.0,0.0,0.0,3.0,0.0,1.0
1715671990,120.0,0.0,0.12,0.0,0.0,0.0,0.0,0.0,2799.4467773,2799.4467773,0.0,0.0,0.0,-0.555,-199800.0,0.0,1.9,-179.1999969,-5.8000002,450.8460693,0.0,18.6000004,40.6334152,0.0,0.0,0.0,0.0,0.0,0.0,0.0,0.0,0.0,0.0,0.0,0.0,0.0,0.0,0.0,0.0,0.0,0.0,0.0,0.0,3.0,1.0,1.0
1715671991,120.0,0.0,0.12,0.0,0.0,0.0,0.0,0.0,2799.4472656,2799.4472656,0.0,0.0,0.0,-0.555,-199800.0,0.0,1.8,-179.1000061,-5.8000002,451.4244385,0.0,18.6000004,40.6334152,0.0,0.0,0.0,0.0,0.0,0.0,0.0,0.0,0.0,0.0,0.0,0.0,0.0,0.0,0.0,0.0,0.0,0.0,0.0,0.0,3.0,1.0,1.0
1715671992,120.0,0.0,0.12,0.0,0.0,0.0,0.0,0.0,2799.4526367,2799.4526367,0.0,0.0,0.0,-0.555,-199800.0,0.0,2.0,-179.1000061,-5.8000002,451.6625977,0.0,18.6000004,40.6106529,0.0,0.0,0.0,0.0,0.0,0.0,0.0,0.0,0.0,0.0,0.0,0.0,0.0,0.0,0.0,0.0,0.0,0.0,0.0,0.0,3.0,1.0,1.0
1715671993,120.0,0.0,0.12,0.0,0.0,0.0,0.0,0.0,2799.4523926,2799.4523926,0.0,0.0,0.0,-0.555,-199800.0,0.0,1.7,-179.1000061,-5.8000002,453.0118408,0.0,18.6000004,40.6106529,0.0,0.0,0.0,0.0,0.0,0.0,0.0,0.0,0.0,0.0,0.0,0.0,0.0,0.0,0.0,0.0,0.0,0.0,0.0,0.0,3.0,1.0,1.0
1715671994,120.0,0.0,0.12,0.0,0.0,0.0,0.0,0.0,2799.4523926,2799.4523926,0.0,0.0,0.0,-0.555,-199800.0,0.0,1.9,-179.0,-5.8000002,454.5198975,0.0,18.6000004,40.622036,0.0,0.0,0.0,0.0,0.0,0.0,0.0,0.0,0.0,0.0,0.0,0.0,0.0,0.0,0.0,0.0,0.0,0.0,0.0,0.0,3.0,1.0,1.0
1715671995,120.0,0.0,0.12,0.0,0.0,0.0,0.0,0.0,2799.4521484,2799.4521484,0.0,0.0,0.0,-0.555,-199800.0,0.0,1.8,-179.0,-5.8000002,456.0842285,0.0,18.6000004,40.6334152,0.0,0.0,0.0,0.0,0.0,0.0,0.0,0.0,0.0,0.0,0.0,0.0,0.0,0.0,0.0,0.0,0.0,0.0,0.0,0.0,3.0,1.0,1.0
1715671996,120.0,0.0,0.12,0.0,0.0,0.0,0.0,0.0,2799.4526367,2799.4526367,0.0,0.0,0.0,-0.555,-199800.0,0.0,1.9,-179.0,-5.9000001,456.2315674,0.0,18.6000004,40.6334152,0.0,0.0,0.0,0.0,0.0,0.0,0.0,0.0,0.0,0.0,0.0,0.0,0.0,0.0,0.0,0.0,0.0,0.0,0.0,0.0,3.0,1.0,1.0
1715671997,120.0,0.0,0.12,0.0,0.0,0.0,0.0,0.0,2799.4467773,2799.4467773,0.0,0.0,0.0,-0.555,-199800.0,0.0,1.7,-179.1000061,-5.9000001,456.5375977,0.0,18.6000004,40.6334152,0.0,0.0,0.0,0.0,0.0,0.0,0.0,0.0,0.0,0.0,0.0,0.0,0.0,0.0,0.0,0.0,0.0,0.0,0.0,0.0,3.0,1.0,1.0
1715671998,120.0,0.0,0.12,0.0,0.0,0.0,0.0,0.0,2799.4465332,2799.4465332,0.0,0.0,0.0,-0.555,-199800.0,0.0,1.8,-179.1000061,-5.8000002,457.059082,0.0,18.6000004,40.622036,0.0,0.0,0.0,0.0,0.0,0.0,0.0,0.0,0.0,0.0,0.0,0.0,0.0,0.0,0.0,0.0,0.0,0.0,0.0,0.0,3.0,1.0,1.0
1715671999,120.0,0.0,0.12,0.0,0.0,0.0,0.0,0.0,2799.4467773,2799.4467773,0.0,0.0,0.0,-0.555,-199800.0,0.0,1.8,-179.1999969,-5.9000001,457.2971191,0.0,18.6000004,40.622036,0.0,0.0,0.0,0.0,0.0,0.0,0.0,0.0,0.0,0.0,0.0,0.0,0.0,0.0,0.0,0.0,0.0,0.0,0.0,0.0,3.0,1.0,1.0
1715672000,120.0,0.0,0.12,0.0,0.0,0.0,0.0,0.0,2799.4467773,2799.4467773,0.0,0.0,0.0,-0.555,-199800.0,0.0,1.8,-179.1000061,-5.8000002,458.2490234,0.0,18.5,40.622036,0.0,0.0,0.0,0.0,0.0,0.0,0.0,0.0,0.0,0.0,0.0,0.0,0.0,0.0,0.0,0.0,0.0,0.0,0.0,0.0,3.0,1.0,1.0
1715672001,120.0,0.0,0.12,0.0,0.0,0.0,0.0,0.0,2799.4467773,2799.4467773,0.0,0.0,0.0,-0.555,-199800.0,0.0,1.7,-178.8999939,-5.8000002,458.645752,0.0,18.5,40.6334152,0.0,0.0,0.0,0.0,0.0,0.0,0.0,0.0,0.0,0.0,0.0,0.0,0.0,0.0,0.0,0.0,0.0,0.0,0.0,0.0,3.0,1.0,1.0
1715672002,120.0,0.0,0.12,0.0,0.0,0.0,0.0,0.0,2799.4467773,2799.4467773,0.0,0.0,0.0,-0.555,-199800.0,0.0,1.8,-179.0,-5.6999998,458.7023926,0.0,18.5,40.6334152,0.0,0.0,0.0,0.0,0.0,0.0,0.0,0.0,0.0,0.0,0.0,0.0,0.0,0.0,0.0,0.0,0.0,0.0,0.0,0.0,3.0,1.0,1.0
1715672003,120.0,0.0,0.12,0.0,0.0,0.0,0.0,0.0,2799.4467773,2799.4467773,0.0,0.0,0.0,-0.555,-199800.0,0.0,1.9,-179.1000061,-5.6999998,459.699707,0.0,18.5,40.6561813,0.0,0.0,0.0,0.0,0.0,0.0,0.0,0.0,0.0,0.0,0.0,0.0,0.0,0.0,0.0,0.0,0.0,0.0,0.0,0.0,3.0,1.0,1.0
1715672004,120.0,0.0,0.12,0.0,0.0,0.0,0.0,0.0,2799.4467773,2799.4467773,0.0,0.0,0.0,-0.555,-199800.0,0.0,1.8,-179.0,-5.8000002,460.8101807,0.0,18.6000004,40.6334152,0.0,0.0,0.0,0.0,0.0,0.0,0.0,0.0,0.0,0.0,0.0,0.0,0.0,0.0,0.0,0.0,0.0,0.0,0.0,0.0,3.0,1.0,1.0
1715672005,120.0,0.0,0.12,0.0,0.0,0.0,0.0,0.0,2799.4467773,2799.4467773,0.0,0.0,0.0,-0.555,-199800.0,0.0,1.7,-179.0,-5.8000002,461.4221191,0.0,18.5,40.622036,0.0,0.0,0.0,0.0,0.0,0.0,0.0,0.0,0.0,0.0,0.0,0.0,0.0,0.0,0.0,0.0,0.0,0.0,0.0,0.0,3.0,1.0,1.0
1715672006,120.0,0.0,0.12,0.0,0.0,0.0,0.0,0.0,2799.4465332,2799.4465332,0.0,0.0,0.0,-0.555,-199800.0,0.0,1.4,-179.3000031,-5.8000002,462.1019287,0.0,18.5,40.622036,0.0,0.0,0.0,0.0,0.0,0.0,0.0,0.0,0.0,0.0,0.0,0.0,0.0,0.0,0.0,0.0,0.0,0.0,0.0,0.0,3.0,1.0,1.0
1715672007,120.0,0.0,0.12,0.0,0.0,0.0,0.0,0.0,2799.4467773,2799.4467773,0.0,0.0,0.0,-0.555,-199800.0,0.0,1.8,-179.1000061,-5.8000002,464.4470215,0.0,18.5,40.6334152,0.0,0.0,0.0,0.0,0.0,0.0,0.0,0.0,0.0,0.0,0.0,0.0,0.0,0.0,0.0,0.0,0.0,0.0,0.0,0.0,3.0,1.0,1.0
1715672008,120.0,0.0,0.12,0.0,0.0,0.0,0.0,0.0,2799.4465332,2799.4465332,0.0,0.0,0.0,-0.555,-199800.0,0.0,1.7,-179.1000061,-5.9000001,464.7189941,0.0,18.5,40.6447983,0.0,0.0,0.0,0.0,0.0,0.0,0.0,0.0,0.0,0.0,0.0,0.0,0.0,0.0,0.0,0.0,0.0,0.0,0.0,0.0,3.0,1.0,1.0
1715672009,120.0,0.0,0.12,0.0,0.0,0.0,0.0,0.0,2799.4467773,2799.4467773,0.0,0.0,0.0,-0.555,-199800.0,0.0,1.8,-179.0,-5.9000001,465.0247803,0.0,18.5,40.6561813,0.0,0.0,0.0,0.0,0.0,0.0,0.0,0.0,0.0,0.0,0.0,0.0,0.0,0.0,0.0,0.0,0.0,0.0,0.0,0.0,3.0,1.0,1.0
1715672010,120.0,0.0,0.12,0.0,0.0,0.0,0.0,0.0,2799.4523926,2799.4523926,0.0,0.0,0.0,-0.555,-199800.0,0.0,1.7,-179.1999969,-5.9000001,465.4439697,0.0,18.5,40.6447983,0.0,0.0,0.0,0.0,0.0,0.0,0.0,0.0,0.0,0.0,0.0,0.0,0.0,0.0,0.0,0.0,0.0,0.0,0.0,0.0,3.0,1.0,1.0
1715672011,120.0,0.0,0.12,0.0,0.0,0.0,0.0,0.0,2799.4521484,2799.4521484,0.0,0.0,0.0,-0.555,-199800.0,0.0,1.9,-179.0,-5.8000002,466.1914062,0.0,18.6000004,40.6334152,0.0,0.0,0.0,0.0,0.0,0.0,0.0,0.0,0.0,0.0,0.0,0.0,0.0,0.0,0.0,0.0,0.0,0.0,0.0,0.0,3.0,1.0,1.0
1715672012,120.0,0.0,0.12,0.0,0.0,0.0,0.0,0.0,2799.4519043,2799.4519043,0.0,0.0,0.0,-0.555,-199800.0,0.0,1.7,-179.0,-5.9000001,466.6557617,0.0,18.6000004,40.6334152,0.0,0.0,0.0,0.0,0.0,0.0,0.0,0.0,0.0,0.0,0.0,0.0,0.0,0.0,0.0,0.0,0.0,0.0,0.0,0.0,3.0,1.0,1.0
1715672013,120.0,0.0,0.12,0.0,0.0,0.0,0.0,0.0,2799.4521484,2799.4521484,0.0,0.0,0.0,-0.555,-199800.0,0.0,1.7,-178.8999939,-5.8000002,466.7237549,0.0,18.5,40.6334152,0.0,0.0,0.0,0.0,0.0,0.0,0.0,0.0,0.0,0.0,0.0,0.0,0.0,0.0,0.0,0.0,0.0,0.0,0.0,0.0,3.0,1.0,1.0
1715672014,120.0,0.0,0.12,0.0,0.0,0.0,0.0,0.0,2799.4516602,2799.4516602,0.0,0.0,0.0,-0.555,-199800.0,0.0,1.8,-179.0,-5.6999998,466.7576904,0.0,18.5,40.6447983,0.0,0.0,0.0,0.0,0.0,0.0,0.0,0.0,0.0,0.0,0.0,0.0,0.0,0.0,0.0,0.0,0.0,0.0,0.0,0.0,3.0,1.0,1.0
1715672015,120.0,0.0,0.12,0.0,0.0,0.0,0.0,0.0,2799.4526367,2799.4526367,0.0,0.0,0.0,-0.555,-199800.0,0.0,1.9,-179.0,-5.8000002,467.9468994,0.0,18.5,40.6561813,0.0,0.0,0.0,0.0,0.0,0.0,0.0,0.0,0.0,0.0,0.0,0.0,0.0,0.0,0.0,0.0,0.0,0.0,0.0,0.0,3.0,1.0,1.0
1715672016,120.0,0.0,0.12,0.0,0.0,0.0,0.0,0.0,2799.4526367,2799.4526367,0.0,0.0,0.0,-0.555,-199800.0,0.0,1.9,-179.0,-5.6999998,468.717041,0.0,18.5,40.6447983,0.0,0.0,0.0,0.0,0.0,0.0,0.0,0.0,0.0,0.0,0.0,0.0,0.0,0.0,0.0,0.0,0.0,0.0,0.0,0.0,3.0,1.0,1.0
1715672017,120.0,0.0,0.12,0.0,0.0,0.0,0.0,0.0,2799.4523926,2799.4523926,0.0,0.0,0.0,-0.555,-199800.0,0.0,1.6,-179.0,-5.6999998,469.4189453,0.0,18.5,40.6334152,0.0,0.0,0.0,0.0,0.0,0.0,0.0,0.0,0.0,0.0,0.0,0.0,0.0,0.0,0.0,0.0,0.0,0.0,0.0,0.0,3.0,1.0,1.0
1715672018,120.0,0.0,0.12,0.0,0.0,0.0,0.0,0.0,2799.4523926,2799.4523926,0.0,0.0,0.0,-0.555,-199800.0,0.0,1.7,-179.0,-5.8000002,470.1210937,0.0,18.5,40.6334152,0.0,0.0,0.0,0.0,0.0,0.0,0.0,0.0,0.0,0.0,0.0,0.0,0.0,0.0,0.0,0.0,0.0,0.0,0.0,0.0,3.0,1.0,1.0
1715672019,120.0,0.0,0.12,0.0,0.0,0.0,0.0,0.0,2799.4465332,2799.4465332,0.0,0.0,0.0,-0.555,-199800.0,0.0,1.9,-179.1000061,-5.8000002,471.5250244,0.0,18.5,40.6334152,0.0,0.0,0.0,0.0,0.0,0.0,0.0,0.0,0.0,0.0,0.0,0.0,0.0,0.0,0.0,0.0,0.0,0.0,0.0,0.0,3.0,1.0,1.0
1715672020,120.0,0.0,0.12,0.0,0.0,0.0,0.0,0.0,2799.4467773,2799.4467773,0.0,0.0,0.0,-0.555,-199800.0,0.0,1.7,-178.8999939,-5.8000002,472.1363525,0.0,18.5,40.6334152,0.0,0.0,0.0,0.0,0.0,0.0,0.0,0.0,0.0,0.0,0.0,0.0,0.0,0.0,0.0,0.0,0.0,0.0,0.0,0.0,3.0,1.0,1.0
1715672021,120.0,0.0,0.12,0.0,0.0,0.0,0.0,0.0,2799.4470215,2799.4470215,0.0,0.0,0.0,-0.555,-199800.0,0.0,1.7,-179.1000061,-5.8000002,472.362793,0.0,18.5,40.6447983,0.0,0.0,0.0,0.0,0.0,0.0,0.0,0.0,0.0,0.0,0.0,0.0,0.0,0.0,0.0,0.0,0.0,0.0,0.0,0.0,3.0,1.0,1.0
1715672022,120.0,0.0,0.12,0.0,0.0,0.0,0.0,0.0,2799.4467773,2799.4467773,0.0,0.0,0.0,-0.555,-199800.0,0.0,1.9,-179.0,-5.8000002,472.7476807,0.0,18.5,40.6561813,0.0,0.0,0.0,0.0,0.0,0.0,0.0,0.0,0.0,0.0,0.0,0.0,0.0,0.0,0.0,0.0,0.0,0.0,0.0,0.0,3.0,1.0,1.0
1715672023,120.0,0.0,0.12,0.0,0.0,0.0,0.0,0.0,2799.4467773,2799.4467773,0.0,0.0,0.0,-0.555,-199800.0,0.0,1.7,-179.0,-5.8000002,473.3023682,0.0,18.5,40.6334152,0.0,0.0,0.0,0.0,0.0,0.0,0.0,0.0,0.0,0.0,0.0,0.0,0.0,0.0,0.0,0.0,0.0,0.0,0.0,0.0,3.0,1.0,1.0
1715672024,120.0,0.0,0.12,0.0,0.0,0.0,0.0,0.0,2799.4467773,2799.4467773,0.0,0.0,0.0,-0.555,-199800.0,0.0,1.7,-179.0,-5.8000002,473.8117676,0.0,18.5,40.6334152,0.0,0.0,0.0,0.0,0.0,0.0,0.0,0.0,0.0,0.0,0.0,0.0,0.0,0.0,0.0,0.0,0.0,0.0,0.0,0.0,3.0,1.0,1.0
1715672025,120.0,0.0,0.12,0.0,0.0,0.0,0.0,0.0,2799.4467773,2799.4467773,0.0,0.0,0.0,-0.555,-199800.0,0.0,1.8,-179.1000061,-5.8000002,474.5926514,0.0,18.6000004,40.6334152,0.0,0.0,0.0,0.0,0.0,0.0,0.0,0.0,0.0,0.0,0.0,0.0,0.0,0.0,0.0,0.0,0.0,0.0,0.0,0.0,3.0,1.0,1.0
1715672026,120.0,0.0,0.12,0.0,0.0,0.0,0.0,0.0,2799.4462891,2799.4462891,0.0,0.0,0.0,-0.555,-199800.0,0.0,1.8,-179.1000061,-5.8000002,474.7963867,0.0,18.6000004,40.6334152,0.0,0.0,0.0,0.0,0.0,0.0,0.0,0.0,0.0,0.0,0.0,0.0,0.0,0.0,0.0,0.0,0.0,0.0,0.0,0.0,3.0,1.0,1.0
1715672027,120.0,0.0,0.12,0.0,0.0,0.0,0.0,0.0,2799.4467773,2799.4467773,0.0,0.0,0.0,-0.555,-199800.0,0.0,1.7,-179.1000061,-5.8000002,474.9436035,0.0,18.6000004,40.6447983,0.0,0.0,0.0,0.0,0.0,0.0,0.0,0.0,0.0,0.0,0.0,0.0,0.0,0.0,0.0,0.0,0.0,0.0,0.0,0.0,3.0,1.0,1.0
1715672028,120.0,0.0,0.12,0.0,0.0,0.0,0.0,0.0,2799.4470215,2799.4470215,0.0,0.0,0.0,-0.555,-199800.0,0.0,1.7,-179.0,-5.6999998,475.9622803,0.0,18.6000004,40.6561813,0.0,0.0,0.0,0.0,0.0,0.0,0.0,0.0,0.0,0.0,0.0,0.0,0.0,0.0,0.0,0.0,0.0,0.0,0.0,0.0,3.0,1.0,1.0
1715672029,120.0,0.0,0.12,0.0,0.0,0.0,0.0,0.0,2799.4465332,2799.4465332,0.0,0.0,0.0,-0.555,-199800.0,0.0,1.5,-179.1000061,-5.8000002,477.0032959,0.0,18.5,40.6447983,0.0,0.0,0.0,0.0,0.0,0.0,0.0,0.0,0.0,0.0,0.0,0.0,0.0,0.0,0.0,0.0,0.0,0.0,0.0,0.0,3.0,1.0,1.0
1715672030,120.0,0.0,0.12,0.0,0.0,0.0,0.0,0.0,2799.4467773,2799.4467773,0.0,0.0,0.0,-0.555,-199800.0,0.0,1.8,-179.1000061,-5.6999998,477.4672852,0.0,18.5,40.6334152,0.0,0.0,0.0,0.0,0.0,0.0,0.0,0.0,0.0,0.0,0.0,0.0,0.0,0.0,0.0,0.0,0.0,0.0,0.0,0.0,3.0,1.0,1.0
1715672031,120.0,0.0,0.12,0.0,0.0,0.0,0.0,0.0,2799.4467773,2799.4467773,0.0,0.0,0.0,-0.555,-199800.0,0.0,1.8,-178.8999939,-5.6999998,477.5578613,0.0,18.6000004,40.6334152,0.0,0.0,0.0,0.0,0.0,0.0,0.0,0.0,0.0,0.0,0.0,0.0,0.0,0.0,0.0,0.0,0.0,0.0,0.0,0.0,3.0,1.0,1.0
1715672032,120.0,0.0,0.12,0.0,0.0,0.0,0.0,0.0,2799.4467773,2799.4467773,0.0,0.0,0.0,-0.555,-199800.0,0.0,1.7,-178.8999939,-5.6999998,480.1262207,0.0,18.6000004,40.6334152,0.0,0.0,0.0,0.0,0.0,0.0,0.0,0.0,0.0,0.0,0.0,0.0,0.0,0.0,0.0,0.0,0.0,0.0,0.0,0.0,3.0,1.0,1.0
1715672033,120.0,0.0,0.12,0.0,0.0,0.0,0.0,0.0,2799.4521484,2799.4521484,0.0,0.0,0.0,-0.555,-199800.0,0.0,1.7,-179.0,-5.6999998,480.1262207,0.0,18.6000004,40.6447983,0.0,0.0,0.0,0.0,0.0,0.0,0.0,0.0,0.0,0.0,0.0,0.0,0.0,0.0,0.0,0.0,0.0,0.0,0.0,0.0,3.0,1.0,1.0
1715672034,120.0,0.0,0.12,0.0,0.0,0.0,0.0,0.0,2799.4523926,2799.4523926,0.0,0.0,0.0,-0.555,-199800.0,0.0,1.7,-179.1000061,-5.8000002,480.7485352,0.0,18.6000004,40.6561813,0.0,0.0,0.0,0.0,0.0,0.0,0.0,0.0,0.0,0.0,0.0,0.0,0.0,0.0,0.0,0.0,0.0,0.0,0.0,0.0,3.0,1.0,1.0
1715672035,120.0,0.0,0.12,0.0,0.0,0.0,0.0,0.0,2799.4521484,2799.4521484,0.0,0.0,0.0,-0.555,-199800.0,0.0,1.9,-179.0,-5.8000002,481.0087891,0.0,18.6000004,40.6447983,0.0,0.0,0.0,0.0,0.0,0.0,0.0,0.0,0.0,0.0,0.0,0.0,0.0,0.0,0.0,0.0,0.0,0.0,0.0,0.0,3.0,1.0,1.0
1715672036,120.0,0.0,0.12,0.0,0.0,0.0,0.0,0.0,2799.4519043,2799.4519043,0.0,0.0,0.0,-0.555,-199800.0,0.0,1.8,-179.0,-5.8000002,481.4725342,0.0,18.5,40.6447983,0.0,0.0,0.0,0.0,0.0,0.0,0.0,0.0,0.0,0.0,0.0,0.0,0.0,0.0,0.0,0.0,0.0,0.0,0.0,0.0,3.0,1.0,1.0
1715672037,120.0,0.0,0.12,0.0,0.0,0.0,0.0,0.0,2799.4521484,2799.4521484,0.0,0.0,0.0,-0.555,-199800.0,0.0,1.8,-179.0,-5.9000001,482.1965332,0.0,18.5,40.6334152,0.0,0.0,0.0,0.0,0.0,0.0,0.0,0.0,0.0,0.0,0.0,0.0,0.0,0.0,0.0,0.0,0.0,0.0,0.0,0.0,3.0,1.0,1.0
1715672038,120.0,0.0,0.12,0.0,0.0,0.0,0.0,0.0,2799.4523926,2799.4523926,0.0,0.0,0.0,-0.555,-199800.0,0.0,1.9,-179.0,-5.8000002,483.2258301,0.0,18.5,40.6334152,0.0,0.0,0.0,0.0,0.0,0.0,0.0,0.0,0.0,0.0,0.0,0.0,0.0,0.0,0.0,0.0,0.0,0.0,0.0,0.0,3.0,1.0,1.0
1715672039,120.0,0.0,0.12,0.0,0.0,0.0,0.0,0.0,2799.4521484,2799.4521484,0.0,0.0,0.0,-0.555,-199800.0,0.0,1.8,-179.0,-5.8000002,483.4407959,0.0,18.5,40.6447983,0.0,0.0,0.0,0.0,0.0,0.0,0.0,0.0,0.0,0.0,0.0,0.0,0.0,0.0,0.0,0.0,0.0,0.0,0.0,0.0,3.0,1.0,1.0
1715672040,120.0,0.0,0.12,0.0,0.0,0.0,0.0,0.0,2799.4526367,2799.4526367,0.0,0.0,0.0,-0.555,-199800.0,0.0,1.8,-179.1000061,-5.6999998,484.2211914,0.0,18.5,40.6447983,0.0,0.0,0.0,0.0,0.0,0.0,0.0,0.0,0.0,0.0,0.0,0.0,0.0,0.0,0.0,0.0,0.0,0.0,0.0,0.0,3.0,0.0,1.0
1715672041,120.0,0.0,0.12,0.0,0.0,0.0,0.0,0.0,2799.4470215,2799.4470215,0.0,0.0,0.0,-0.555,-199800.0,0.0,1.7,-178.8999939,-5.6999998,484.6396484,0.0,18.5,40.6561813,0.0,0.0,0.0,0.0,0.0,0.0,0.0,0.0,0.0,0.0,0.0,0.0,0.0,0.0,0.0,0.0,0.0,0.0,0.0,0.0,3.0,1.0,1.0
1715672042,120.0,0.0,0.12,0.0,0.0,0.0,0.0,0.0,2799.4467773,2799.4467773,0.0,0.0,0.0,-0.555,-199800.0,0.0,1.8,-179.1000061,-5.8000002,485.2955322,0.0,18.6000004,40.6447983,0.0,0.0,0.0,0.0,0.0,0.0,0.0,0.0,0.0,0.0,0.0,0.0,0.0,0.0,0.0,0.0,0.0,0.0,0.0,0.0,3.0,1.0,1.0
1715672043,120.0,0.0,0.12,0.0,0.0,0.0,0.0,0.0,2799.4467773,2799.4467773,0.0,0.0,0.0,-0.555,-199800.0,0.0,1.7,-179.0,-5.8000002,485.4538574,0.0,18.5,40.6334152,0.0,0.0,0.0,0.0,0.0,0.0,0.0,0.0,0.0,0.0,0.0,0.0,0.0,0.0,0.0,0.0,0.0,0.0,0.0,0.0,3.0,1.0,1.0
1715672044,120.0,0.0,0.12,0.0,0.0,0.0,0.0,0.0,2799.4467773,2799.4467773,0.0,0.0,0.0,-0.555,-199800.0,0.0,1.8,-179.1000061,-5.9000001,486.2906494,0.0,18.5,40.6334152,0.0,0.0,0.0,0.0,0.0,0.0,0.0,0.0,0.0,0.0,0.0,0.0,0.0,0.0,0.0,0.0,0.0,0.0,0.0,0.0,3.0,1.0,1.0
1715672045,120.0,0.0,0.12,0.0,0.0,0.0,0.0,0.0,2799.4465332,2799.4465332,0.0,0.0,0.0,-0.555,-199800.0,0.0,1.7,-179.1000061,-5.9000001,488.1676025,0.0,18.6000004,40.6334152,0.0,0.0,0.0,0.0,0.0,0.0,0.0,0.0,0.0,0.0,0.0,0.0,0.0,0.0,0.0,0.0,0.0,0.0,0.0,0.0,3.0,1.0,1.0
1715672046,120.0,0.0,0.12,0.0,0.0,0.0,0.0,0.0,2799.4467773,2799.4467773,0.0,0.0,0.0,-0.555,-199800.0,0.0,1.7,-179.1000061,-5.8000002,488.574585,0.0,18.5,40.6447983,0.0,0.0,0.0,0.0,0.0,0.0,0.0,0.0,0.0,0.0,0.0,0.0,0.0,0.0,0.0,0.0,0.0,0.0,0.0,0.0,3.0,1.0,1.0
1715672047,120.0,0.0,0.12,0.0,0.0,0.0,0.0,0.0,2799.4467773,2799.4467773,0.0,0.0,0.0,-0.555,-199800.0,0.0,1.8,-179.1000061,-5.8000002,489.2642822,0.0,18.6000004,40.6561813,0.0,0.0,0.0,0.0,0.0,0.0,0.0,0.0,0.0,0.0,0.0,0.0,0.0,0.0,0.0,0.0,0.0,0.0,0.0,0.0,3.0,1.0,1.0
1715672048,120.0,0.0,0.12,0.0,0.0,0.0,0.0,0.0,2799.4470215,2799.4470215,0.0,0.0,0.0,-0.555,-199800.0,0.0,1.6,-179.0,-5.9000001,489.4112549,0.0,18.5,40.6447983,0.0,0.0,0.0,0.0,0.0,0.0,0.0,0.0,0.0,0.0,0.0,0.0,0.0,0.0,0.0,0.0,0.0,0.0,0.0,0.0,3.0,1.0,1.0
1715672049,120.0,0.0,0.12,0.0,0.0,0.0,0.0,0.0,2799.4467773,2799.4467773,0.0,0.0,0.0,-0.555,-199800.0,0.0,1.8,-179.1000061,-5.9000001,490.2817383,0.0,18.5,40.622036,0.0,0.0,0.0,0.0,0.0,0.0,0.0,0.0,0.0,0.0,0.0,0.0,0.0,0.0,0.0,0.0,0.0,0.0,0.0,0.0,3.0,1.0,1.0
1715672050,120.0,0.0,0.12,0.0,0.0,0.0,0.0,0.0,2799.4467773,2799.4467773,0.0,0.0,0.0,-0.555,-199800.0,0.0,1.9,-179.0,-5.9000001,490.8242187,0.0,18.5,40.622036,0.0,0.0,0.0,0.0,0.0,0.0,0.0,0.0,0.0,0.0,0.0,0.0,0.0,0.0,0.0,0.0,0.0,0.0,0.0,0.0,3.0,1.0,1.0
1715672051,120.0,0.0,0.12,0.0,0.0,0.0,0.0,0.0,2799.4467773,2799.4467773,0.0,0.0,0.0,-0.555,-199800.0,0.0,1.7,-179.1000061,-5.8000002,491.9094238,0.0,18.5,40.622036,0.0,0.0,0.0,0.0,0.0,0.0,0.0,0.0,0.0,0.0,0.0,0.0,0.0,0.0,0.0,0.0,0.0,0.0,0.0,0.0,3.0,1.0,1.0
1715672052,120.0,0.0,0.12,0.0,0.0,0.0,0.0,0.0,2799.4467773,2799.4467773,0.0,0.0,0.0,-0.555,-199800.0,0.0,1.8,-179.0,-5.8000002,492.1468506,0.0,18.5,40.622036,0.0,0.0,0.0,0.0,0.0,0.0,0.0,0.0,0.0,0.0,0.0,0.0,0.0,0.0,0.0,0.0,0.0,0.0,0.0,0.0,3.0,1.0,1.0
1715672053,120.0,0.0,0.12,0.0,0.0,0.0,0.0,0.0,2799.4138184,2799.4138184,0.0,0.0,0.0,-0.555,-199800.0,0.0,0.0,0.0,0.0,492.621582,0.0,18.5,40.6561813,0.0,0.0,0.0,0.0,0.0,0.0,0.0,0.0,0.0,0.0,0.0,0.0,0.0,0.0,0.0,0.0,0.0,0.0,0.0,0.0,3.0,1.0,1.0
1715672054,120.0,0.0,0.12,0.0,0.0,0.0,0.0,0.0,2799.4858398,2799.4858398,0.0,0.0,0.0,-0.555,-199800.0,0.0,1.8,-179.1000061,-5.6999998,493.6950684,0.0,18.5,40.622036,0.0,0.0,0.0,0.0,0.0,0.0,0.0,0.0,0.0,0.0,0.0,0.0,0.0,0.0,0.0,0.0,0.0,0.0,0.0,0.0,3.0,1.0,1.0
1715672055,120.0,0.0,0.12,0.0,0.0,0.0,0.0,0.0,2799.4467773,2799.4467773,0.0,0.0,0.0,-0.555,-199800.0,0.0,1.6,-178.8000031,-0.7,493.9437256,0.0,18.5,40.6106529,0.0,0.0,0.0,0.0,0.0,0.0,0.0,0.0,0.0,0.0,0.0,0.0,0.0,0.0,0.0,0.0,0.0,0.0,0.0,0.0,3.0,1.0,1.0
1715672056,120.0,0.0,0.12,0.0,0.0,0.0,0.0,0.0,2799.4467773,2799.4467773,0.0,0.0,0.0,-0.555,-199800.0,0.0,1.5,-179.3000031,-10.1999998,494.0341797,0.0,18.5,40.6106529,0.0,0.0,0.0,0.0,0.0,0.0,0.0,0.0,0.0,0.0,0.0,0.0,0.0,0.0,0.0,0.0,0.0,0.0,0.0,0.0,3.0,1.0,1.0
1715672057,120.0,0.0,0.12,0.0,0.0,0.0,0.0,0.0,2799.4467773,2799.4467773,0.0,0.0,0.0,-0.555,-199800.0,0.0,1.7,-179.0,-4.9000001,494.4748535,0.0,18.5,40.6106529,0.0,0.0,0.0,0.0,0.0,0.0,0.0,0.0,0.0,0.0,0.0,0.0,0.0,0.0,0.0,0.0,0.0,0.0,0.0,0.0,3.0,1.0,1.0
1715672058,120.0,0.0,0.12,0.0,0.0,0.0,0.0,0.0,2799.4467773,2799.4467773,0.0,0.0,0.0,-0.555,-199800.0,0.0,1.8,-179.0,-5.4000001,496.7686768,0.0,18.5,40.6106529,0.0,0.0,0.0,0.0,0.0,0.0,0.0,0.0,0.0,0.0,0.0,0.0,0.0,0.0,0.0,0.0,0.0,0.0,0.0,0.0,3.0,1.0,1.0
1715672059,120.0,0.0,0.12,0.0,0.0,0.0,0.0,0.0,2799.4523926,2799.4523926,0.0,0.0,0.0,-0.555,-199800.0,0.0,1.7,-179.0,-5.5999999,496.8590088,0.0,18.5,40.622036,0.0,0.0,0.0,0.0,0.0,0.0,0.0,0.0,0.0,0.0,0.0,0.0,0.0,0.0,0.0,0.0,0.0,0.0,0.0,0.0,3.0,1.0,1.0
1715672060,120.0,0.0,0.12,0.0,0.0,0.0,0.0,0.0,2799.4521484,2799.4521484,0.0,0.0,0.0,-0.555,-199800.0,0.0,1.9,-178.8999939,-5.5999999,497.4691162,0.0,18.5,40.6334152,0.0,0.0,0.0,0.0,0.0,0.0,0.0,0.0,0.0,0.0,0.0,0.0,0.0,0.0,0.0,0.0,0.0,0.0,0.0,0.0,3.0,1.0,1.0
1715672061,120.0,0.0,0.12,0.0,0.0,0.0,0.0,0.0,2799.4523926,2799.4523926,0.0,0.0,0.0,-0.555,-199800.0,0.0,1.7,-179.0,-5.6999998,497.9549561,0.0,18.5,40.6106529,0.0,0.0,0.0,0.0,0.0,0.0,0.0,0.0,0.0,0.0,0.0,0.0,0.0,0.0,0.0,0.0,0.0,0.0,0.0,0.0,3.0,1.0,1.0
1715672062,120.0,0.0,0.12,0.0,0.0,0.0,0.0,0.0,2799.4519043,2799.4519043,0.0,0.0,0.0,-0.555,-199800.0,0.0,1.8,-178.8999939,-5.6999998,498.4859619,0.0,18.5,40.6106529,0.0,0.0,0.0,0.0,0.0,0.0,0.0,0.0,0.0,0.0,0.0,0.0,0.0,0.0,0.0,0.0,0.0,0.0,0.0,0.0,3.0,1.0,1.0
1715672063,120.0,0.0,0.12,0.0,0.0,0.0,0.0,0.0,2799.4523926,2799.4523926,0.0,0.0,0.0,-0.555,-199800.0,0.0,1.8,-179.0,-5.5999999,499.7962646,0.0,18.5,40.6106529,0.0,0.0,0.0,0.0,0.0,0.0,0.0,0.0,0.0,0.0,0.0,0.0,0.0,0.0,0.0,0.0,0.0,0.0,0.0,0.0,3.0,1.0,1.0
1715672064,120.0,0.0,0.12,0.0,0.0,0.0,0.0,0.0,2799.4521484,2799.4521484,0.0,0.0,0.0,-0.555,-199800.0,0.0,1.8,-179.0,-5.6999998,500.3835449,0.0,18.5,40.6106529,0.0,0.0,0.0,0.0,0.0,0.0,0.0,0.0,0.0,0.0,0.0,0.0,0.0,0.0,0.0,0.0,0.0,0.0,0.0,0.0,3.0,1.0,1.0
1715672065,120.0,0.0,0.12,0.0,0.0,0.0,0.0,0.0,2798.8986816,2798.8986816,0.0,0.0,0.0,-0.555,-199800.0,0.0,1.8,-179.1000061,-5.5999999,500.8806152,0.0,18.6000004,40.622036,0.0,0.0,0.0,0.0,0.0,0.0,0.0,0.0,0.0,0.0,0.0,0.0,0.0,0.0,0.0,0.0,0.0,0.0,0.0,0.0,3.0,1.0,1.0
1715672066,120.0,0.0,0.12,0.0,0.0,0.0,0.0,0.0,2798.345459,2798.345459,0.0,0.0,0.0,-0.555,-199800.0,0.0,1.8,-179.0,-5.5999999,500.9257812,0.0,18.5,40.6334152,0.0,0.0,0.0,0.0,0.0,0.0,0.0,0.0,0.0,0.0,0.0,0.0,0.0,0.0,0.0,0.0,0.0,0.0,0.0,0.0,3.0,1.0,1.0
1715672067,120.0,0.0,0.12,0.0,0.0,0.0,0.0,0.0,2797.7922363,2797.7922363,0.0,0.0,0.0,-0.555,-199800.0,0.0,1.7,-179.0,-5.5999999,501.9986572,0.0,18.6000004,40.6334152,0.0,0.0,0.0,0.0,0.0,0.0,0.0,0.0,0.0,0.0,0.0,0.0,0.0,0.0,0.0,0.0,0.0,0.0,0.0,0.0,3.0,1.0,1.0
1715672068,120.0,0.0,0.12,0.0,0.0,0.0,0.0,0.0,2797.2387695,2797.2387695,0.0,0.0,0.0,-0.555,-199800.0,0.0,1.8,-179.1000061,-5.5999999,502.0212402,0.0,18.6000004,40.622036,0.0,0.0,0.0,0.0,0.0,0.0,0.0,0.0,0.0,0.0,0.0,0.0,0.0,0.0,0.0,0.0,0.0,0.0,0.0,0.0,3.0,1.0,1.0
1715672069,120.0,0.0,0.12,0.0,0.0,0.0,0.0,0.0,2796.6855469,2796.6855469,0.0,0.0,0.0,-0.555,-199800.0,0.0,2.0,-178.8999939,-5.5999999,503.2296143,0.0,18.6000004,40.622036,0.0,0.0,0.0,0.0,0.0,0.0,0.0,0.0,0.0,0.0,0.0,0.0,0.0,0.0,0.0,0.0,0.0,0.0,0.0,0.0,3.0,1.0,1.0
1715672070,120.0,0.0,0.12,0.0,0.0,0.0,0.0,0.0,2796.1325684,2796.1325684,0.0,0.0,0.0,-0.555,-199800.0,0.0,1.8,-179.0,-5.5999999,503.850708,0.0,18.6000004,40.622036,0.0,0.0,0.0,0.0,0.0,0.0,0.0,0.0,0.0,0.0,0.0,0.0,0.0,0.0,0.0,0.0,0.0,0.0,0.0,0.0,3.0,1.0,1.0
1715672071,120.0,0.0,0.12,0.0,0.0,0.0,0.0,0.0,2795.5793457,2795.5793457,0.0,0.0,0.0,-0.555,-199800.0,0.0,1.8,-179.1000061,-5.5999999,505.487915,0.0,18.5,40.6334152,0.0,0.0,0.0,0.0,0.0,0.0,0.0,0.0,0.0,0.0,0.0,0.0,0.0,0.0,0.0,0.0,0.0,0.0,0.0,0.0,3.0,1.0,1.0
1715672072,120.0,0.0,0.12,0.0,0.0,0.0,0.0,0.0,2795.026123,2795.026123,0.0,0.0,0.0,-0.555,-199800.0,0.0,1.8,-179.1000061,-5.6999998,506.2894287,0.0,18.5,40.6334152,0.0,0.0,0.0,0.0,0.0,0.0,0.0,0.0,0.0,0.0,0.0,0.0,0.0,0.0,0.0,0.0,0.0,0.0,0.0,0.0,3.0,1.0,1.0
1715672073,120.0,0.0,0.12,0.0,0.0,0.0,0.0,0.0,2794.4731445,2794.4731445,0.0,0.0,0.0,-0.555,-199800.0,0.0,1.8,-179.1999969,-5.6999998,506.7183838,0.0,18.5,40.6447983,0.0,0.0,0.0,0.0,0.0,0.0,0.0,0.0,0.0,0.0,0.0,0.0,0.0,0.0,0.0,0.0,0.0,0.0,0.0,0.0,3.0,1.0,1.0
1715672074,120.0,0.0,0.12,0.0,0.0,0.0,0.0,0.0,2793.920166,2793.920166,0.0,0.0,0.0,-0.555,-199800.0,0.0,1.8,-179.1999969,-5.6999998,506.7635498,0.0,18.5,40.6334152,0.0,0.0,0.0,0.0,0.0,0.0,0.0,0.0,0.0,0.0,0.0,0.0,0.0,0.0,0.0,0.0,0.0,0.0,0.0,0.0,3.0,1.0,1.0
1715672075,120.0,0.0,0.12,0.0,0.0,0.0,0.0,0.0,2793.3662109,2793.3662109,0.0,0.0,0.0,-0.555,-199800.0,0.0,1.9,-179.0,-5.6999998,508.0279541,0.0,18.6000004,40.622036,0.0,0.0,0.0,0.0,0.0,0.0,0.0,0.0,0.0,0.0,0.0,0.0,0.0,0.0,0.0,0.0,0.0,0.0,0.0,0.0,3.0,1.0,1.0
1715672076,120.0,0.0,0.12,0.0,0.0,0.0,0.0,0.0,2792.8129883,2792.8129883,0.0,0.0,0.0,-0.555,-199800.0,0.0,1.9,-179.1000061,-5.5999999,508.3100586,0.0,18.5,40.622036,0.0,0.0,0.0,0.0,0.0,0.0,0.0,0.0,0.0,0.0,0.0,0.0,0.0,0.0,0.0,0.0,0.0,0.0,0.0,0.0,3.0,1.0,1.0
1715672077,120.0,0.0,0.12,0.0,0.0,0.0,0.0,0.0,2792.2595215,2792.2595215,0.0,0.0,0.0,-0.555,-199800.0,0.0,1.8,-179.0,-5.5999999,509.2695312,0.0,18.5,40.622036,0.0,0.0,0.0,0.0,0.0,0.0,0.0,0.0,0.0,0.0,0.0,0.0,0.0,0.0,0.0,0.0,0.0,0.0,0.0,0.0,3.0,1.0,1.0
1715672078,120.0,0.0,0.12,0.0,0.0,0.0,0.0,0.0,2791.7060547,2791.7060547,0.0,0.0,0.0,-0.555,-199800.0,0.0,1.8,-179.0,-5.5,509.6983643,0.0,18.5,40.6334152,0.0,0.0,0.0,0.0,0.0,0.0,0.0,0.0,0.0,0.0,0.0,0.0,0.0,0.0,0.0,0.0,0.0,0.0,0.0,0.0,3.0,1.0,1.0
1715672079,120.0,0.0,0.12,0.0,0.0,0.0,0.0,0.0,2791.1530762,2791.1530762,0.0,0.0,0.0,-0.555,-199800.0,0.0,1.7,-179.0,-5.5,511.6734619,0.0,18.5,40.6447983,0.0,0.0,0.0,0.0,0.0,0.0,0.0,0.0,0.0,0.0,0.0,0.0,0.0,0.0,0.0,0.0,0.0,0.0,0.0,0.0,3.0,1.0,1.0
1715672080,120.0,0.0,0.12,0.0,0.0,0.0,0.0,0.0,2790.6000977,2790.6000977,0.0,0.0,0.0,-0.555,-199800.0,0.0,1.8,-179.1000061,-5.5999999,512.8695068,0.0,18.5,40.6334152,0.0,0.0,0.0,0.0,0.0,0.0,0.0,0.0,0.0,0.0,0.0,0.0,0.0,0.0,0.0,0.0,0.0,0.0,0.0,0.0,3.0,1.0,1.0
1715672081,120.0,0.0,0.12,0.0,0.0,0.0,0.0,0.0,2790.0463867,2790.0463867,0.0,0.0,0.0,-0.555,-199800.0,0.0,1.6,-179.0,-5.5999999,513.1854248,0.0,18.5,40.622036,0.0,0.0,0.0,0.0,0.0,0.0,0.0,0.0,0.0,0.0,0.0,0.0,0.0,0.0,0.0,0.0,0.0,0.0,0.0,0.0,3.0,1.0,1.0
1715672082,120.0,0.0,0.12,0.0,0.0,0.0,0.0,0.0,2789.4990234,2789.4990234,0.0,0.0,0.0,-0.555,-199800.0,0.0,1.8,-179.0,-5.5999999,514.3249512,0.0,18.5,40.6106529,0.0,0.0,0.0,0.0,0.0,0.0,0.0,0.0,0.0,0.0,0.0,0.0,0.0,0.0,0.0,0.0,0.0,0.0,0.0,0.0,3.0,1.0,1.0
1715672083,120.0,0.0,0.12,0.0,0.0,0.0,0.0,0.0,2788.9453125,2788.9453125,0.0,0.0,0.0,-0.555,-199800.0,0.0,1.9,-178.8999939,-5.5999999,515.543335,0.0,18.5,40.6106529,0.0,0.0,0.0,0.0,0.0,0.0,0.0,0.0,0.0,0.0,0.0,0.0,0.0,0.0,0.0,0.0,0.0,0.0,0.0,0.0,3.0,1.0,1.0
1715672084,120.0,0.0,0.12,0.0,0.0,0.0,0.0,0.0,2788.3920898,2788.3920898,0.0,0.0,0.0,-0.555,-199800.0,0.0,1.9,-179.1000061,-5.5999999,517.5963135,0.0,18.5,40.622036,0.0,0.0,0.0,0.0,0.0,0.0,0.0,0.0,0.0,0.0,0.0,0.0,0.0,0.0,0.0,0.0,0.0,0.0,0.0,0.0,3.0,1.0,1.0
1715672085,120.0,0.0,0.12,0.0,0.0,0.0,0.0,0.0,2787.8391113,2787.8391113,0.0,0.0,0.0,-0.555,-199800.0,0.0,1.8,-179.1000061,-5.6999998,517.9685059,0.0,18.5,40.6447983,0.0,0.0,0.0,0.0,0.0,0.0,0.0,0.0,0.0,0.0,0.0,0.0,0.0,0.0,0.0,0.0,0.0,0.0,0.0,0.0,3.0,1.0,1.0
1715672086,120.0,0.0,0.12,0.0,0.0,0.0,0.0,0.0,2787.2861328,2787.2861328,0.0,0.0,0.0,-0.555,-199800.0,0.0,1.8,-179.0,-5.5999999,518.2504883,0.0,18.5,40.6447983,0.0,0.0,0.0,0.0,0.0,0.0,0.0,0.0,0.0,0.0,0.0,0.0,0.0,0.0,0.0,0.0,0.0,0.0,0.0,0.0,3.0,1.0,1.0
1715672087,120.0,0.0,0.12,0.0,0.0,0.0,0.0,0.0,2786.7329102,2786.7329102,0.0,0.0,0.0,-0.555,-199800.0,0.0,1.7,-179.1000061,-5.6999998,519.5024414,0.0,18.5,40.622036,0.0,0.0,0.0,0.0,0.0,0.0,0.0,0.0,0.0,0.0,0.0,0.0,0.0,0.0,0.0,0.0,0.0,0.0,0.0,0.0,3.0,1.0,1.0
1715672088,120.0,0.0,0.12,0.0,0.0,0.0,0.0,0.0,2786.1791992,2786.1791992,0.0,0.0,0.0,-0.555,-199800.0,0.0,1.9,-179.0,-5.5999999,519.7166748,0.0,18.5,40.6106529,0.0,0.0,0.0,0.0,0.0,0.0,0.0,0.0,0.0,0.0,0.0,0.0,0.0,0.0,0.0,0.0,0.0,0.0,0.0,0.0,3.0,1.0,1.0
1715672089,120.0,0.0,0.12,0.0,0.0,0.0,0.0,0.0,2785.6259766,2785.6259766,0.0,0.0,0.0,-0.555,-199800.0,0.0,1.8,-179.1000061,-5.5999999,520.3481445,0.0,18.5,40.6106529,0.0,0.0,0.0,0.0,0.0,0.0,0.0,0.0,0.0,0.0,0.0,0.0,0.0,0.0,0.0,0.0,0.0,0.0,0.0,0.0,3.0,1.0,1.0
